[
  {
    "name": "'Cue",
    "lat": 34.1680071,
    "lon": -84.1236377,
    "cuisine": "barbecue",
    "source": "OpenStreetMap Overpass API (amenity=restaurant); bbox+addr:state filtered to the Atlanta MSA from eda/research/restaurants_raw.geojson, see eda/fetch_restaurants.py"
  },
  {
    "name": "10 Degrees South",
    "lat": 33.8690534,
    "lon": -84.3806675,
    "cuisine": null,
    "source": "OpenStreetMap Overpass API (amenity=restaurant); bbox+addr:state filtered to the Atlanta MSA from eda/research/restaurants_raw.geojson, see eda/fetch_restaurants.py"
  },
  {
    "name": "1000 Degrees",
    "lat": 33.946881,
    "lon": -84.5190299,
    "cuisine": "pizza",
    "source": "OpenStreetMap Overpass API (amenity=restaurant); bbox+addr:state filtered to the Atlanta MSA from eda/research/restaurants_raw.geojson, see eda/fetch_restaurants.py"
  },
  {
    "name": "101 Bagel Cafe",
    "lat": 33.9667617,
    "lon": -84.4111719,
    "cuisine": null,
    "source": "OpenStreetMap Overpass API (amenity=restaurant); bbox+addr:state filtered to the Atlanta MSA from eda/research/restaurants_raw.geojson, see eda/fetch_restaurants.py"
  },
  {
    "name": "1201 Restaurant",
    "lat": 33.8116286,
    "lon": -84.425045,
    "cuisine": "american",
    "source": "OpenStreetMap Overpass API (amenity=restaurant); bbox+addr:state filtered to the Atlanta MSA from eda/research/restaurants_raw.geojson, see eda/fetch_restaurants.py"
  },
  {
    "name": "15th Street Pizza & Pub",
    "lat": 33.4611994,
    "lon": -84.2180926,
    "cuisine": "pizza",
    "source": "OpenStreetMap Overpass API (amenity=restaurant); bbox+addr:state filtered to the Atlanta MSA from eda/research/restaurants_raw.geojson, see eda/fetch_restaurants.py"
  },
  {
    "name": "1885 Grill",
    "lat": 34.0228226,
    "lon": -84.6149783,
    "cuisine": "regional",
    "source": "OpenStreetMap Overpass API (amenity=restaurant); bbox+addr:state filtered to the Atlanta MSA from eda/research/restaurants_raw.geojson, see eda/fetch_restaurants.py"
  },
  {
    "name": "1885 Grill",
    "lat": 34.0676777,
    "lon": -84.67744,
    "cuisine": "regional",
    "source": "OpenStreetMap Overpass API (amenity=restaurant); bbox+addr:state filtered to the Atlanta MSA from eda/research/restaurants_raw.geojson, see eda/fetch_restaurants.py"
  },
  {
    "name": "1910",
    "lat": 33.88614,
    "lon": -84.1350424,
    "cuisine": null,
    "source": "OpenStreetMap Overpass API (amenity=restaurant); bbox+addr:state filtered to the Atlanta MSA from eda/research/restaurants_raw.geojson, see eda/fetch_restaurants.py"
  },
  {
    "name": "1911 Biscuits & Burgers",
    "lat": 33.8776107,
    "lon": -84.5328144,
    "cuisine": "burger;biscuit;american;breakfast",
    "source": "OpenStreetMap Overpass API (amenity=restaurant); bbox+addr:state filtered to the Atlanta MSA from eda/research/restaurants_raw.geojson, see eda/fetch_restaurants.py"
  },
  {
    "name": "1st Wok",
    "lat": 33.8438528,
    "lon": -84.3283397,
    "cuisine": "chinese",
    "source": "OpenStreetMap Overpass API (amenity=restaurant); bbox+addr:state filtered to the Atlanta MSA from eda/research/restaurants_raw.geojson, see eda/fetch_restaurants.py"
  },
  {
    "name": "2 Spicy Burritos",
    "lat": 33.9268039,
    "lon": -84.1145273,
    "cuisine": "mexican",
    "source": "OpenStreetMap Overpass API (amenity=restaurant); bbox+addr:state filtered to the Atlanta MSA from eda/research/restaurants_raw.geojson, see eda/fetch_restaurants.py"
  },
  {
    "name": "202 Bangkok Thai & Sushi Bar",
    "lat": 33.5789683,
    "lon": -85.0747918,
    "cuisine": "thai;sushi",
    "source": "OpenStreetMap Overpass API (amenity=restaurant); bbox+addr:state filtered to the Atlanta MSA from eda/research/restaurants_raw.geojson, see eda/fetch_restaurants.py"
  },
  {
    "name": "224 West African Cuisine",
    "lat": 33.614577,
    "lon": -84.4499135,
    "cuisine": null,
    "source": "OpenStreetMap Overpass API (amenity=restaurant); bbox+addr:state filtered to the Atlanta MSA from eda/research/restaurants_raw.geojson, see eda/fetch_restaurants.py"
  },
  {
    "name": "24/7 Shared Kitchen",
    "lat": 33.9436511,
    "lon": -83.9911501,
    "cuisine": null,
    "source": "OpenStreetMap Overpass API (amenity=restaurant); bbox+addr:state filtered to the Atlanta MSA from eda/research/restaurants_raw.geojson, see eda/fetch_restaurants.py"
  },
  {
    "name": "255 Tapas Lounge",
    "lat": 33.7476811,
    "lon": -84.4016652,
    "cuisine": "tapas",
    "source": "OpenStreetMap Overpass API (amenity=restaurant); bbox+addr:state filtered to the Atlanta MSA from eda/research/restaurants_raw.geojson, see eda/fetch_restaurants.py"
  },
  {
    "name": "26 Thai Kitchen & Bar",
    "lat": 33.7770138,
    "lon": -84.3830405,
    "cuisine": "thai",
    "source": "OpenStreetMap Overpass API (amenity=restaurant); bbox+addr:state filtered to the Atlanta MSA from eda/research/restaurants_raw.geojson, see eda/fetch_restaurants.py"
  },
  {
    "name": "3 Amigos Mexican Bar & Grill",
    "lat": 33.952931,
    "lon": -84.5824635,
    "cuisine": "mexican",
    "source": "OpenStreetMap Overpass API (amenity=restaurant); bbox+addr:state filtered to the Atlanta MSA from eda/research/restaurants_raw.geojson, see eda/fetch_restaurants.py"
  },
  {
    "name": "4 Way Lunch",
    "lat": 34.1654062,
    "lon": -84.7943249,
    "cuisine": "burger",
    "source": "OpenStreetMap Overpass API (amenity=restaurant); bbox+addr:state filtered to the Atlanta MSA from eda/research/restaurants_raw.geojson, see eda/fetch_restaurants.py"
  },
  {
    "name": "404 Resturant and Bar",
    "lat": 33.8904284,
    "lon": -84.3808948,
    "cuisine": "southern",
    "source": "OpenStreetMap Overpass API (amenity=restaurant); bbox+addr:state filtered to the Atlanta MSA from eda/research/restaurants_raw.geojson, see eda/fetch_restaurants.py"
  },
  {
    "name": "48th Street Deli",
    "lat": 33.9585153,
    "lon": -84.3040949,
    "cuisine": "deli;italian",
    "source": "OpenStreetMap Overpass API (amenity=restaurant); bbox+addr:state filtered to the Atlanta MSA from eda/research/restaurants_raw.geojson, see eda/fetch_restaurants.py"
  },
  {
    "name": "575 Bistro",
    "lat": 34.0088354,
    "lon": -84.5765176,
    "cuisine": "vietnamese;seafood;asian",
    "source": "OpenStreetMap Overpass API (amenity=restaurant); bbox+addr:state filtered to the Atlanta MSA from eda/research/restaurants_raw.geojson, see eda/fetch_restaurants.py"
  },
  {
    "name": "57th Fighter Group",
    "lat": 33.872574,
    "lon": -84.3056273,
    "cuisine": "american",
    "source": "OpenStreetMap Overpass API (amenity=restaurant); bbox+addr:state filtered to the Atlanta MSA from eda/research/restaurants_raw.geojson, see eda/fetch_restaurants.py"
  },
  {
    "name": "5Church Atlanta",
    "lat": 33.7872807,
    "lon": -84.3827824,
    "cuisine": "american",
    "source": "OpenStreetMap Overpass API (amenity=restaurant); bbox+addr:state filtered to the Atlanta MSA from eda/research/restaurants_raw.geojson, see eda/fetch_restaurants.py"
  },
  {
    "name": "5Church Buckhead",
    "lat": 33.847859,
    "lon": -84.3658154,
    "cuisine": "american;italian;seafood",
    "source": "OpenStreetMap Overpass API (amenity=restaurant); bbox+addr:state filtered to the Atlanta MSA from eda/research/restaurants_raw.geojson, see eda/fetch_restaurants.py"
  },
  {
    "name": "61 Main",
    "lat": 34.4676475,
    "lon": -84.4291549,
    "cuisine": null,
    "source": "OpenStreetMap Overpass API (amenity=restaurant); bbox+addr:state filtered to the Atlanta MSA from eda/research/restaurants_raw.geojson, see eda/fetch_restaurants.py"
  },
  {
    "name": "678 Korean BBQ",
    "lat": 33.9533869,
    "lon": -84.1422237,
    "cuisine": "korean",
    "source": "OpenStreetMap Overpass API (amenity=restaurant); bbox+addr:state filtered to the Atlanta MSA from eda/research/restaurants_raw.geojson, see eda/fetch_restaurants.py"
  },
  {
    "name": "683 Midtown Bar and Bistro",
    "lat": 33.7731496,
    "lon": -84.3846182,
    "cuisine": "american",
    "source": "OpenStreetMap Overpass API (amenity=restaurant); bbox+addr:state filtered to the Atlanta MSA from eda/research/restaurants_raw.geojson, see eda/fetch_restaurants.py"
  },
  {
    "name": "7 Acre Bar & Grille",
    "lat": 34.1667503,
    "lon": -84.3335127,
    "cuisine": null,
    "source": "OpenStreetMap Overpass API (amenity=restaurant); bbox+addr:state filtered to the Atlanta MSA from eda/research/restaurants_raw.geojson, see eda/fetch_restaurants.py"
  },
  {
    "name": "876 NyanMinz",
    "lat": 33.9157081,
    "lon": -84.4692539,
    "cuisine": "jamaican",
    "source": "OpenStreetMap Overpass API (amenity=restaurant); bbox+addr:state filtered to the Atlanta MSA from eda/research/restaurants_raw.geojson, see eda/fetch_restaurants.py"
  },
  {
    "name": "9292 Korean BBQ #2",
    "lat": 33.9563523,
    "lon": -84.1287659,
    "cuisine": "korean",
    "source": "OpenStreetMap Overpass API (amenity=restaurant); bbox+addr:state filtered to the Atlanta MSA from eda/research/restaurants_raw.geojson, see eda/fetch_restaurants.py"
  },
  {
    "name": "985 Korean BBQ",
    "lat": 34.087594,
    "lon": -83.9957563,
    "cuisine": null,
    "source": "OpenStreetMap Overpass API (amenity=restaurant); bbox+addr:state filtered to the Atlanta MSA from eda/research/restaurants_raw.geojson, see eda/fetch_restaurants.py"
  },
  {
    "name": "9th Ave Street Food",
    "lat": 33.7727527,
    "lon": -84.3781422,
    "cuisine": null,
    "source": "OpenStreetMap Overpass API (amenity=restaurant); bbox+addr:state filtered to the Atlanta MSA from eda/research/restaurants_raw.geojson, see eda/fetch_restaurants.py"
  },
  {
    "name": "A Taste of Paradise Restaurant & Event Hall",
    "lat": 33.8963648,
    "lon": -84.1426907,
    "cuisine": null,
    "source": "OpenStreetMap Overpass API (amenity=restaurant); bbox+addr:state filtered to the Atlanta MSA from eda/research/restaurants_raw.geojson, see eda/fetch_restaurants.py"
  },
  {
    "name": "AJ's Home Cooking",
    "lat": 34.0684131,
    "lon": -84.2949698,
    "cuisine": null,
    "source": "OpenStreetMap Overpass API (amenity=restaurant); bbox+addr:state filtered to the Atlanta MSA from eda/research/restaurants_raw.geojson, see eda/fetch_restaurants.py"
  },
  {
    "name": "APRON",
    "lat": 33.6526159,
    "lon": -84.4007899,
    "cuisine": null,
    "source": "OpenStreetMap Overpass API (amenity=restaurant); bbox+addr:state filtered to the Atlanta MSA from eda/research/restaurants_raw.geojson, see eda/fetch_restaurants.py"
  },
  {
    "name": "ATL Fusion",
    "lat": 33.860615,
    "lon": -84.597932,
    "cuisine": null,
    "source": "OpenStreetMap Overpass API (amenity=restaurant); bbox+addr:state filtered to the Atlanta MSA from eda/research/restaurants_raw.geojson, see eda/fetch_restaurants.py"
  },
  {
    "name": "ATL Gom BBQ",
    "lat": 34.0049728,
    "lon": -84.0845853,
    "cuisine": "korean",
    "source": "OpenStreetMap Overpass API (amenity=restaurant); bbox+addr:state filtered to the Atlanta MSA from eda/research/restaurants_raw.geojson, see eda/fetch_restaurants.py"
  },
  {
    "name": "ATL Pho Vietnamese Noodle Soup & Grill",
    "lat": 33.8940089,
    "lon": -84.1419683,
    "cuisine": "vietnamese",
    "source": "OpenStreetMap Overpass API (amenity=restaurant); bbox+addr:state filtered to the Atlanta MSA from eda/research/restaurants_raw.geojson, see eda/fetch_restaurants.py"
  },
  {
    "name": "ATL WINGS N HIBACHI",
    "lat": 33.7185031,
    "lon": -84.9352307,
    "cuisine": null,
    "source": "OpenStreetMap Overpass API (amenity=restaurant); bbox+addr:state filtered to the Atlanta MSA from eda/research/restaurants_raw.geojson, see eda/fetch_restaurants.py"
  },
  {
    "name": "ATL Wings & Things",
    "lat": 33.9024224,
    "lon": -84.0056069,
    "cuisine": "wings",
    "source": "OpenStreetMap Overpass API (amenity=restaurant); bbox+addr:state filtered to the Atlanta MSA from eda/research/restaurants_raw.geojson, see eda/fetch_restaurants.py"
  },
  {
    "name": "Aamar Indian Cuisine",
    "lat": 33.7573385,
    "lon": -84.3898383,
    "cuisine": null,
    "source": "OpenStreetMap Overpass API (amenity=restaurant); bbox+addr:state filtered to the Atlanta MSA from eda/research/restaurants_raw.geojson, see eda/fetch_restaurants.py"
  },
  {
    "name": "Ably Asian Cuisine",
    "lat": 34.470231,
    "lon": -84.4587198,
    "cuisine": "asian",
    "source": "OpenStreetMap Overpass API (amenity=restaurant); bbox+addr:state filtered to the Atlanta MSA from eda/research/restaurants_raw.geojson, see eda/fetch_restaurants.py"
  },
  {
    "name": "Abuelos Mexican Kitchen",
    "lat": 33.9362759,
    "lon": -84.3766272,
    "cuisine": "mexican",
    "source": "OpenStreetMap Overpass API (amenity=restaurant); bbox+addr:state filtered to the Atlanta MSA from eda/research/restaurants_raw.geojson, see eda/fetch_restaurants.py"
  },
  {
    "name": "Abyssinia Cafe and Restaurant",
    "lat": 33.8104439,
    "lon": -84.2424298,
    "cuisine": "ethiopian",
    "source": "OpenStreetMap Overpass API (amenity=restaurant); bbox+addr:state filtered to the Atlanta MSA from eda/research/restaurants_raw.geojson, see eda/fetch_restaurants.py"
  },
  {
    "name": "Across the Street",
    "lat": 33.7614995,
    "lon": -84.3653948,
    "cuisine": null,
    "source": "OpenStreetMap Overpass API (amenity=restaurant); bbox+addr:state filtered to the Atlanta MSA from eda/research/restaurants_raw.geojson, see eda/fetch_restaurants.py"
  },
  {
    "name": "Adda Sports Pub & Eatery",
    "lat": 34.0781776,
    "lon": -84.1619437,
    "cuisine": null,
    "source": "OpenStreetMap Overpass API (amenity=restaurant); bbox+addr:state filtered to the Atlanta MSA from eda/research/restaurants_raw.geojson, see eda/fetch_restaurants.py"
  },
  {
    "name": "Adios Cafe",
    "lat": 33.749891,
    "lon": -84.4010243,
    "cuisine": "breakfast;mexican;coffee_shop",
    "source": "OpenStreetMap Overpass API (amenity=restaurant); bbox+addr:state filtered to the Atlanta MSA from eda/research/restaurants_raw.geojson, see eda/fetch_restaurants.py"
  },
  {
    "name": "Adobo Taqueria and Tequila Bar",
    "lat": 34.0620502,
    "lon": -84.2140031,
    "cuisine": null,
    "source": "OpenStreetMap Overpass API (amenity=restaurant); bbox+addr:state filtered to the Atlanta MSA from eda/research/restaurants_raw.geojson, see eda/fetch_restaurants.py"
  },
  {
    "name": "Adrian's Place",
    "lat": 33.598214,
    "lon": -83.4709325,
    "cuisine": null,
    "source": "OpenStreetMap Overpass API (amenity=restaurant); bbox+addr:state filtered to the Atlanta MSA from eda/research/restaurants_raw.geojson, see eda/fetch_restaurants.py"
  },
  {
    "name": "Adriatic Grill",
    "lat": 33.9576384,
    "lon": -83.9997456,
    "cuisine": "mediterranean;pastry;coffee",
    "source": "OpenStreetMap Overpass API (amenity=restaurant); bbox+addr:state filtered to the Atlanta MSA from eda/research/restaurants_raw.geojson, see eda/fetch_restaurants.py"
  },
  {
    "name": "Adryannis",
    "lat": 33.7764816,
    "lon": -84.2959929,
    "cuisine": "greek",
    "source": "OpenStreetMap Overpass API (amenity=restaurant); bbox+addr:state filtered to the Atlanta MSA from eda/research/restaurants_raw.geojson, see eda/fetch_restaurants.py"
  },
  {
    "name": "Affextionate Cuizine",
    "lat": 33.8752936,
    "lon": -84.7613837,
    "cuisine": null,
    "source": "OpenStreetMap Overpass API (amenity=restaurant); bbox+addr:state filtered to the Atlanta MSA from eda/research/restaurants_raw.geojson, see eda/fetch_restaurants.py"
  },
  {
    "name": "Agave",
    "lat": 33.7479192,
    "lon": -84.3679088,
    "cuisine": null,
    "source": "OpenStreetMap Overpass API (amenity=restaurant); bbox+addr:state filtered to the Atlanta MSA from eda/research/restaurants_raw.geojson, see eda/fetch_restaurants.py"
  },
  {
    "name": "Agave",
    "lat": 33.7479065,
    "lon": -84.3679063,
    "cuisine": null,
    "source": "OpenStreetMap Overpass API (amenity=restaurant); bbox+addr:state filtered to the Atlanta MSA from eda/research/restaurants_raw.geojson, see eda/fetch_restaurants.py"
  },
  {
    "name": "Agavero",
    "lat": 33.903189,
    "lon": -84.119134,
    "cuisine": "mexican",
    "source": "OpenStreetMap Overpass API (amenity=restaurant); bbox+addr:state filtered to the Atlanta MSA from eda/research/restaurants_raw.geojson, see eda/fetch_restaurants.py"
  },
  {
    "name": "Agavero Cantina",
    "lat": 33.7892067,
    "lon": -84.4255992,
    "cuisine": "mexican",
    "source": "OpenStreetMap Overpass API (amenity=restaurant); bbox+addr:state filtered to the Atlanta MSA from eda/research/restaurants_raw.geojson, see eda/fetch_restaurants.py"
  },
  {
    "name": "Agavero Cantina - Parkside",
    "lat": 33.885843,
    "lon": -84.1334585,
    "cuisine": "mexican",
    "source": "OpenStreetMap Overpass API (amenity=restaurant); bbox+addr:state filtered to the Atlanta MSA from eda/research/restaurants_raw.geojson, see eda/fetch_restaurants.py"
  },
  {
    "name": "Agora Mediterranean Cuisine",
    "lat": 33.7809485,
    "lon": -84.3844968,
    "cuisine": "mediterranean",
    "source": "OpenStreetMap Overpass API (amenity=restaurant); bbox+addr:state filtered to the Atlanta MSA from eda/research/restaurants_raw.geojson, see eda/fetch_restaurants.py"
  },
  {
    "name": "Airport View Restaurant",
    "lat": 33.6538388,
    "lon": -84.4101365,
    "cuisine": null,
    "source": "OpenStreetMap Overpass API (amenity=restaurant); bbox+addr:state filtered to the Atlanta MSA from eda/research/restaurants_raw.geojson, see eda/fetch_restaurants.py"
  },
  {
    "name": "Akmals Crossroad",
    "lat": 33.6139852,
    "lon": -84.8361615,
    "cuisine": null,
    "source": "OpenStreetMap Overpass API (amenity=restaurant); bbox+addr:state filtered to the Atlanta MSA from eda/research/restaurants_raw.geojson, see eda/fetch_restaurants.py"
  },
  {
    "name": "Al Zein",
    "lat": 34.0699722,
    "lon": -84.2045498,
    "cuisine": null,
    "source": "OpenStreetMap Overpass API (amenity=restaurant); bbox+addr:state filtered to the Atlanta MSA from eda/research/restaurants_raw.geojson, see eda/fetch_restaurants.py"
  },
  {
    "name": "Al-Sultan Mediterranean Food",
    "lat": 33.8107071,
    "lon": -84.239438,
    "cuisine": "kebab;ethiopian",
    "source": "OpenStreetMap Overpass API (amenity=restaurant); bbox+addr:state filtered to the Atlanta MSA from eda/research/restaurants_raw.geojson, see eda/fetch_restaurants.py"
  },
  {
    "name": "Aladdin's",
    "lat": 33.8006944,
    "lon": -84.3264374,
    "cuisine": "mediterranean",
    "source": "OpenStreetMap Overpass API (amenity=restaurant); bbox+addr:state filtered to the Atlanta MSA from eda/research/restaurants_raw.geojson, see eda/fetch_restaurants.py"
  },
  {
    "name": "Aldo's Italian Restaurant",
    "lat": 33.9376822,
    "lon": -84.3785653,
    "cuisine": "italian",
    "source": "OpenStreetMap Overpass API (amenity=restaurant); bbox+addr:state filtered to the Atlanta MSA from eda/research/restaurants_raw.geojson, see eda/fetch_restaurants.py"
  },
  {
    "name": "Aleppo Kitchen",
    "lat": 33.7385222,
    "lon": -84.3444816,
    "cuisine": "syrian",
    "source": "OpenStreetMap Overpass API (amenity=restaurant); bbox+addr:state filtered to the Atlanta MSA from eda/research/restaurants_raw.geojson, see eda/fetch_restaurants.py"
  },
  {
    "name": "Ali Baba Mediterranean",
    "lat": 33.7637965,
    "lon": -84.3510303,
    "cuisine": "turkish;mediterranean",
    "source": "OpenStreetMap Overpass API (amenity=restaurant); bbox+addr:state filtered to the Atlanta MSA from eda/research/restaurants_raw.geojson, see eda/fetch_restaurants.py"
  },
  {
    "name": "Alisha's Kitchen",
    "lat": 34.1974607,
    "lon": -84.7935901,
    "cuisine": null,
    "source": "OpenStreetMap Overpass API (amenity=restaurant); bbox+addr:state filtered to the Atlanta MSA from eda/research/restaurants_raw.geojson, see eda/fetch_restaurants.py"
  },
  {
    "name": "All In Sports",
    "lat": 33.560305,
    "lon": -84.313885,
    "cuisine": null,
    "source": "OpenStreetMap Overpass API (amenity=restaurant); bbox+addr:state filtered to the Atlanta MSA from eda/research/restaurants_raw.geojson, see eda/fetch_restaurants.py"
  },
  {
    "name": "Alluvia",
    "lat": 33.7793475,
    "lon": -84.3885362,
    "cuisine": null,
    "source": "OpenStreetMap Overpass API (amenity=restaurant); bbox+addr:state filtered to the Atlanta MSA from eda/research/restaurants_raw.geojson, see eda/fetch_restaurants.py"
  },
  {
    "name": "Alma Cocina",
    "lat": 33.7591852,
    "lon": -84.3874023,
    "cuisine": "mexican",
    "source": "OpenStreetMap Overpass API (amenity=restaurant); bbox+addr:state filtered to the Atlanta MSA from eda/research/restaurants_raw.geojson, see eda/fetch_restaurants.py"
  },
  {
    "name": "Alta Toro Modern Latin",
    "lat": 33.7805467,
    "lon": -84.3871415,
    "cuisine": "spanish",
    "source": "OpenStreetMap Overpass API (amenity=restaurant); bbox+addr:state filtered to the Atlanta MSA from eda/research/restaurants_raw.geojson, see eda/fetch_restaurants.py"
  },
  {
    "name": "Altobeli's Restaurant & Piano Bar",
    "lat": 34.0231147,
    "lon": -84.2702906,
    "cuisine": "italian",
    "source": "OpenStreetMap Overpass API (amenity=restaurant); bbox+addr:state filtered to the Atlanta MSA from eda/research/restaurants_raw.geojson, see eda/fetch_restaurants.py"
  },
  {
    "name": "Altona Burger And Beer Garden",
    "lat": 33.9660413,
    "lon": -84.2554482,
    "cuisine": null,
    "source": "OpenStreetMap Overpass API (amenity=restaurant); bbox+addr:state filtered to the Atlanta MSA from eda/research/restaurants_raw.geojson, see eda/fetch_restaurants.py"
  },
  {
    "name": "Amalfi",
    "lat": 33.8438905,
    "lon": -84.3731771,
    "cuisine": null,
    "source": "OpenStreetMap Overpass API (amenity=restaurant); bbox+addr:state filtered to the Atlanta MSA from eda/research/restaurants_raw.geojson, see eda/fetch_restaurants.py"
  },
  {
    "name": "Amalfi Pizza",
    "lat": 33.7595906,
    "lon": -84.386976,
    "cuisine": "pizza;italian",
    "source": "OpenStreetMap Overpass API (amenity=restaurant); bbox+addr:state filtered to the Atlanta MSA from eda/research/restaurants_raw.geojson, see eda/fetch_restaurants.py"
  },
  {
    "name": "American Cut",
    "lat": 33.8373609,
    "lon": -84.3810406,
    "cuisine": "steak_house",
    "source": "OpenStreetMap Overpass API (amenity=restaurant); bbox+addr:state filtered to the Atlanta MSA from eda/research/restaurants_raw.geojson, see eda/fetch_restaurants.py"
  },
  {
    "name": "American Deli",
    "lat": 33.6819945,
    "lon": -84.4080504,
    "cuisine": "american",
    "source": "OpenStreetMap Overpass API (amenity=restaurant); bbox+addr:state filtered to the Atlanta MSA from eda/research/restaurants_raw.geojson, see eda/fetch_restaurants.py"
  },
  {
    "name": "American Deli",
    "lat": 33.655035,
    "lon": -84.5049509,
    "cuisine": "american",
    "source": "OpenStreetMap Overpass API (amenity=restaurant); bbox+addr:state filtered to the Atlanta MSA from eda/research/restaurants_raw.geojson, see eda/fetch_restaurants.py"
  },
  {
    "name": "American Deli",
    "lat": 33.7754375,
    "lon": -84.2944583,
    "cuisine": "sandwich",
    "source": "OpenStreetMap Overpass API (amenity=restaurant); bbox+addr:state filtered to the Atlanta MSA from eda/research/restaurants_raw.geojson, see eda/fetch_restaurants.py"
  },
  {
    "name": "American Deli",
    "lat": 33.850459,
    "lon": -84.220022,
    "cuisine": null,
    "source": "OpenStreetMap Overpass API (amenity=restaurant); bbox+addr:state filtered to the Atlanta MSA from eda/research/restaurants_raw.geojson, see eda/fetch_restaurants.py"
  },
  {
    "name": "American Deli",
    "lat": 33.9671758,
    "lon": -84.4893956,
    "cuisine": "sandwich;american",
    "source": "OpenStreetMap Overpass API (amenity=restaurant); bbox+addr:state filtered to the Atlanta MSA from eda/research/restaurants_raw.geojson, see eda/fetch_restaurants.py"
  },
  {
    "name": "American Deli",
    "lat": 33.8505339,
    "lon": -84.2546306,
    "cuisine": null,
    "source": "OpenStreetMap Overpass API (amenity=restaurant); bbox+addr:state filtered to the Atlanta MSA from eda/research/restaurants_raw.geojson, see eda/fetch_restaurants.py"
  },
  {
    "name": "American Deli",
    "lat": 33.7247598,
    "lon": -84.7581596,
    "cuisine": null,
    "source": "OpenStreetMap Overpass API (amenity=restaurant); bbox+addr:state filtered to the Atlanta MSA from eda/research/restaurants_raw.geojson, see eda/fetch_restaurants.py"
  },
  {
    "name": "American Deli",
    "lat": 33.8570924,
    "lon": -84.5905654,
    "cuisine": "american",
    "source": "OpenStreetMap Overpass API (amenity=restaurant); bbox+addr:state filtered to the Atlanta MSA from eda/research/restaurants_raw.geojson, see eda/fetch_restaurants.py"
  },
  {
    "name": "American Deli",
    "lat": 33.8580591,
    "lon": -84.0182251,
    "cuisine": null,
    "source": "OpenStreetMap Overpass API (amenity=restaurant); bbox+addr:state filtered to the Atlanta MSA from eda/research/restaurants_raw.geojson, see eda/fetch_restaurants.py"
  },
  {
    "name": "American Pie",
    "lat": 33.0397665,
    "lon": -84.1584645,
    "cuisine": "pizza",
    "source": "OpenStreetMap Overpass API (amenity=restaurant); bbox+addr:state filtered to the Atlanta MSA from eda/research/restaurants_raw.geojson, see eda/fetch_restaurants.py"
  },
  {
    "name": "American Pie",
    "lat": 33.2703335,
    "lon": -84.2960572,
    "cuisine": "pizza",
    "source": "OpenStreetMap Overpass API (amenity=restaurant); bbox+addr:state filtered to the Atlanta MSA from eda/research/restaurants_raw.geojson, see eda/fetch_restaurants.py"
  },
  {
    "name": "American Pie Pizzeria",
    "lat": 33.5737099,
    "lon": -85.0871936,
    "cuisine": "pizza",
    "source": "OpenStreetMap Overpass API (amenity=restaurant); bbox+addr:state filtered to the Atlanta MSA from eda/research/restaurants_raw.geojson, see eda/fetch_restaurants.py"
  },
  {
    "name": "Amici",
    "lat": 33.624264,
    "lon": -83.8354586,
    "cuisine": "pizza",
    "source": "OpenStreetMap Overpass API (amenity=restaurant); bbox+addr:state filtered to the Atlanta MSA from eda/research/restaurants_raw.geojson, see eda/fetch_restaurants.py"
  },
  {
    "name": "Ammazza",
    "lat": 33.7540696,
    "lon": -84.3680237,
    "cuisine": "pizza",
    "source": "OpenStreetMap Overpass API (amenity=restaurant); bbox+addr:state filtered to the Atlanta MSA from eda/research/restaurants_raw.geojson, see eda/fetch_restaurants.py"
  },
  {
    "name": "Amos' BBQ & Biscuits",
    "lat": 34.2798739,
    "lon": -84.2969509,
    "cuisine": null,
    "source": "OpenStreetMap Overpass API (amenity=restaurant); bbox+addr:state filtered to the Atlanta MSA from eda/research/restaurants_raw.geojson, see eda/fetch_restaurants.py"
  },
  {
    "name": "Anatolia Mediterranean Cafe",
    "lat": 33.755184,
    "lon": -84.389284,
    "cuisine": "mediterranean",
    "source": "OpenStreetMap Overpass API (amenity=restaurant); bbox+addr:state filtered to the Atlanta MSA from eda/research/restaurants_raw.geojson, see eda/fetch_restaurants.py"
  },
  {
    "name": "Anchor Bar",
    "lat": 34.01525,
    "lon": -84.5625276,
    "cuisine": "wings",
    "source": "OpenStreetMap Overpass API (amenity=restaurant); bbox+addr:state filtered to the Atlanta MSA from eda/research/restaurants_raw.geojson, see eda/fetch_restaurants.py"
  },
  {
    "name": "Angles in the Kitchen",
    "lat": 33.7310795,
    "lon": -84.9434425,
    "cuisine": "american",
    "source": "OpenStreetMap Overpass API (amenity=restaurant); bbox+addr:state filtered to the Atlanta MSA from eda/research/restaurants_raw.geojson, see eda/fetch_restaurants.py"
  },
  {
    "name": "Anh\u2019s Kitchen",
    "lat": 33.7779671,
    "lon": -84.3841208,
    "cuisine": "vietnamese",
    "source": "OpenStreetMap Overpass API (amenity=restaurant); bbox+addr:state filtered to the Atlanta MSA from eda/research/restaurants_raw.geojson, see eda/fetch_restaurants.py"
  },
  {
    "name": "Anis Caf\u00e9 & Bistro",
    "lat": 33.8357664,
    "lon": -84.3765941,
    "cuisine": "french",
    "source": "OpenStreetMap Overpass API (amenity=restaurant); bbox+addr:state filtered to the Atlanta MSA from eda/research/restaurants_raw.geojson, see eda/fetch_restaurants.py"
  },
  {
    "name": "Annunziata's Cucina Italiano",
    "lat": 34.2066101,
    "lon": -84.1406604,
    "cuisine": "pizza",
    "source": "OpenStreetMap Overpass API (amenity=restaurant); bbox+addr:state filtered to the Atlanta MSA from eda/research/restaurants_raw.geojson, see eda/fetch_restaurants.py"
  },
  {
    "name": "Another Broken Egg Cafe",
    "lat": 33.86549,
    "lon": -84.4660811,
    "cuisine": null,
    "source": "OpenStreetMap Overpass API (amenity=restaurant); bbox+addr:state filtered to the Atlanta MSA from eda/research/restaurants_raw.geojson, see eda/fetch_restaurants.py"
  },
  {
    "name": "Another Broken Egg Cafe",
    "lat": 34.0437606,
    "lon": -84.3433226,
    "cuisine": "american;breakfast",
    "source": "OpenStreetMap Overpass API (amenity=restaurant); bbox+addr:state filtered to the Atlanta MSA from eda/research/restaurants_raw.geojson, see eda/fetch_restaurants.py"
  },
  {
    "name": "Another Broken Egg Cafe",
    "lat": 33.9331687,
    "lon": -84.3362424,
    "cuisine": "brunch;breakfast",
    "source": "OpenStreetMap Overpass API (amenity=restaurant); bbox+addr:state filtered to the Atlanta MSA from eda/research/restaurants_raw.geojson, see eda/fetch_restaurants.py"
  },
  {
    "name": "Anthony's Pizza & Pasta",
    "lat": 33.4471996,
    "lon": -84.1365536,
    "cuisine": "pizza",
    "source": "OpenStreetMap Overpass API (amenity=restaurant); bbox+addr:state filtered to the Atlanta MSA from eda/research/restaurants_raw.geojson, see eda/fetch_restaurants.py"
  },
  {
    "name": "Antico Pizza",
    "lat": 33.8891006,
    "lon": -84.4689309,
    "cuisine": "italian",
    "source": "OpenStreetMap Overpass API (amenity=restaurant); bbox+addr:state filtered to the Atlanta MSA from eda/research/restaurants_raw.geojson, see eda/fetch_restaurants.py"
  },
  {
    "name": "Antico Pizza Napoletana",
    "lat": 33.7846556,
    "lon": -84.4056305,
    "cuisine": "pizza",
    "source": "OpenStreetMap Overpass API (amenity=restaurant); bbox+addr:state filtered to the Atlanta MSA from eda/research/restaurants_raw.geojson, see eda/fetch_restaurants.py"
  },
  {
    "name": "Antico Pizza Napoletana",
    "lat": 34.071401,
    "lon": -84.2769386,
    "cuisine": "pizza",
    "source": "OpenStreetMap Overpass API (amenity=restaurant); bbox+addr:state filtered to the Atlanta MSA from eda/research/restaurants_raw.geojson, see eda/fetch_restaurants.py"
  },
  {
    "name": "Aomi",
    "lat": 33.9830776,
    "lon": -84.2162706,
    "cuisine": "japanese",
    "source": "OpenStreetMap Overpass API (amenity=restaurant); bbox+addr:state filtered to the Atlanta MSA from eda/research/restaurants_raw.geojson, see eda/fetch_restaurants.py"
  },
  {
    "name": "Appalachian Grill",
    "lat": 34.1672562,
    "lon": -84.7954747,
    "cuisine": "southern",
    "source": "OpenStreetMap Overpass API (amenity=restaurant); bbox+addr:state filtered to the Atlanta MSA from eda/research/restaurants_raw.geojson, see eda/fetch_restaurants.py"
  },
  {
    "name": "Applebee's",
    "lat": 33.7230116,
    "lon": -84.5089961,
    "cuisine": "american",
    "source": "OpenStreetMap Overpass API (amenity=restaurant); bbox+addr:state filtered to the Atlanta MSA from eda/research/restaurants_raw.geojson, see eda/fetch_restaurants.py"
  },
  {
    "name": "Applebee's",
    "lat": 33.6983419,
    "lon": -84.0906411,
    "cuisine": "american",
    "source": "OpenStreetMap Overpass API (amenity=restaurant); bbox+addr:state filtered to the Atlanta MSA from eda/research/restaurants_raw.geojson, see eda/fetch_restaurants.py"
  },
  {
    "name": "Applebee's",
    "lat": 34.014868,
    "lon": -84.5612998,
    "cuisine": "american",
    "source": "OpenStreetMap Overpass API (amenity=restaurant); bbox+addr:state filtered to the Atlanta MSA from eda/research/restaurants_raw.geojson, see eda/fetch_restaurants.py"
  },
  {
    "name": "Applebee's",
    "lat": 33.8846633,
    "lon": -84.4730759,
    "cuisine": "american",
    "source": "OpenStreetMap Overpass API (amenity=restaurant); bbox+addr:state filtered to the Atlanta MSA from eda/research/restaurants_raw.geojson, see eda/fetch_restaurants.py"
  },
  {
    "name": "Applebee's",
    "lat": 34.345901,
    "lon": -84.0492353,
    "cuisine": "american",
    "source": "OpenStreetMap Overpass API (amenity=restaurant); bbox+addr:state filtered to the Atlanta MSA from eda/research/restaurants_raw.geojson, see eda/fetch_restaurants.py"
  },
  {
    "name": "Applebee's",
    "lat": 33.726428,
    "lon": -84.7575294,
    "cuisine": "american",
    "source": "OpenStreetMap Overpass API (amenity=restaurant); bbox+addr:state filtered to the Atlanta MSA from eda/research/restaurants_raw.geojson, see eda/fetch_restaurants.py"
  },
  {
    "name": "Applebee's",
    "lat": 34.1020882,
    "lon": -84.0205896,
    "cuisine": "american",
    "source": "OpenStreetMap Overpass API (amenity=restaurant); bbox+addr:state filtered to the Atlanta MSA from eda/research/restaurants_raw.geojson, see eda/fetch_restaurants.py"
  },
  {
    "name": "Applebee's",
    "lat": 34.184803,
    "lon": -84.1413582,
    "cuisine": "american",
    "source": "OpenStreetMap Overpass API (amenity=restaurant); bbox+addr:state filtered to the Atlanta MSA from eda/research/restaurants_raw.geojson, see eda/fetch_restaurants.py"
  },
  {
    "name": "Applebee's",
    "lat": 33.9659875,
    "lon": -84.0082508,
    "cuisine": "american",
    "source": "OpenStreetMap Overpass API (amenity=restaurant); bbox+addr:state filtered to the Atlanta MSA from eda/research/restaurants_raw.geojson, see eda/fetch_restaurants.py"
  },
  {
    "name": "Applebee's",
    "lat": 33.8744409,
    "lon": -84.0142769,
    "cuisine": "american",
    "source": "OpenStreetMap Overpass API (amenity=restaurant); bbox+addr:state filtered to the Atlanta MSA from eda/research/restaurants_raw.geojson, see eda/fetch_restaurants.py"
  },
  {
    "name": "Applebee's",
    "lat": 33.7936786,
    "lon": -83.7430337,
    "cuisine": "american",
    "source": "OpenStreetMap Overpass API (amenity=restaurant); bbox+addr:state filtered to the Atlanta MSA from eda/research/restaurants_raw.geojson, see eda/fetch_restaurants.py"
  },
  {
    "name": "Applebee's",
    "lat": 33.3960617,
    "lon": -84.7451164,
    "cuisine": "american",
    "source": "OpenStreetMap Overpass API (amenity=restaurant); bbox+addr:state filtered to the Atlanta MSA from eda/research/restaurants_raw.geojson, see eda/fetch_restaurants.py"
  },
  {
    "name": "Applebee's",
    "lat": 33.8233546,
    "lon": -84.1094177,
    "cuisine": "american",
    "source": "OpenStreetMap Overpass API (amenity=restaurant); bbox+addr:state filtered to the Atlanta MSA from eda/research/restaurants_raw.geojson, see eda/fetch_restaurants.py"
  },
  {
    "name": "Applebee's",
    "lat": 33.5606544,
    "lon": -85.0740541,
    "cuisine": "american",
    "source": "OpenStreetMap Overpass API (amenity=restaurant); bbox+addr:state filtered to the Atlanta MSA from eda/research/restaurants_raw.geojson, see eda/fetch_restaurants.py"
  },
  {
    "name": "Applebee's",
    "lat": 33.6055817,
    "lon": -83.8716912,
    "cuisine": "american",
    "source": "OpenStreetMap Overpass API (amenity=restaurant); bbox+addr:state filtered to the Atlanta MSA from eda/research/restaurants_raw.geojson, see eda/fetch_restaurants.py"
  },
  {
    "name": "Applebee's",
    "lat": 33.8324482,
    "lon": -83.8823034,
    "cuisine": "american",
    "source": "OpenStreetMap Overpass API (amenity=restaurant); bbox+addr:state filtered to the Atlanta MSA from eda/research/restaurants_raw.geojson, see eda/fetch_restaurants.py"
  },
  {
    "name": "Applebee's",
    "lat": 33.5706305,
    "lon": -84.3726705,
    "cuisine": "american",
    "source": "OpenStreetMap Overpass API (amenity=restaurant); bbox+addr:state filtered to the Atlanta MSA from eda/research/restaurants_raw.geojson, see eda/fetch_restaurants.py"
  },
  {
    "name": "Applebee's",
    "lat": 33.4260845,
    "lon": -84.17736,
    "cuisine": "american",
    "source": "OpenStreetMap Overpass API (amenity=restaurant); bbox+addr:state filtered to the Atlanta MSA from eda/research/restaurants_raw.geojson, see eda/fetch_restaurants.py"
  },
  {
    "name": "Applebee's",
    "lat": 33.551998,
    "lon": -84.2712605,
    "cuisine": "american",
    "source": "OpenStreetMap Overpass API (amenity=restaurant); bbox+addr:state filtered to the Atlanta MSA from eda/research/restaurants_raw.geojson, see eda/fetch_restaurants.py"
  },
  {
    "name": "Applebee's",
    "lat": 33.8564562,
    "lon": -84.2079425,
    "cuisine": "american",
    "source": "OpenStreetMap Overpass API (amenity=restaurant); bbox+addr:state filtered to the Atlanta MSA from eda/research/restaurants_raw.geojson, see eda/fetch_restaurants.py"
  },
  {
    "name": "Applebee's",
    "lat": 33.2770665,
    "lon": -84.29217,
    "cuisine": "american",
    "source": "OpenStreetMap Overpass API (amenity=restaurant); bbox+addr:state filtered to the Atlanta MSA from eda/research/restaurants_raw.geojson, see eda/fetch_restaurants.py"
  },
  {
    "name": "Applebee's",
    "lat": 33.6504915,
    "lon": -83.996664,
    "cuisine": "american",
    "source": "OpenStreetMap Overpass API (amenity=restaurant); bbox+addr:state filtered to the Atlanta MSA from eda/research/restaurants_raw.geojson, see eda/fetch_restaurants.py"
  },
  {
    "name": "Applebee's",
    "lat": 33.790554,
    "lon": -84.6246075,
    "cuisine": "american",
    "source": "OpenStreetMap Overpass API (amenity=restaurant); bbox+addr:state filtered to the Atlanta MSA from eda/research/restaurants_raw.geojson, see eda/fetch_restaurants.py"
  },
  {
    "name": "Applebee's",
    "lat": 33.9425129,
    "lon": -83.755561,
    "cuisine": "american",
    "source": "OpenStreetMap Overpass API (amenity=restaurant); bbox+addr:state filtered to the Atlanta MSA from eda/research/restaurants_raw.geojson, see eda/fetch_restaurants.py"
  },
  {
    "name": "Applebee's",
    "lat": 34.1706533,
    "lon": -84.7842158,
    "cuisine": "american",
    "source": "OpenStreetMap Overpass API (amenity=restaurant); bbox+addr:state filtered to the Atlanta MSA from eda/research/restaurants_raw.geojson, see eda/fetch_restaurants.py"
  },
  {
    "name": "Applebee's",
    "lat": 33.7829919,
    "lon": -84.235995,
    "cuisine": "american",
    "source": "OpenStreetMap Overpass API (amenity=restaurant); bbox+addr:state filtered to the Atlanta MSA from eda/research/restaurants_raw.geojson, see eda/fetch_restaurants.py"
  },
  {
    "name": "Applebee's",
    "lat": 33.9572112,
    "lon": -84.1339254,
    "cuisine": "american",
    "source": "OpenStreetMap Overpass API (amenity=restaurant); bbox+addr:state filtered to the Atlanta MSA from eda/research/restaurants_raw.geojson, see eda/fetch_restaurants.py"
  },
  {
    "name": "Applebee's",
    "lat": 34.1218808,
    "lon": -84.5241043,
    "cuisine": "american",
    "source": "OpenStreetMap Overpass API (amenity=restaurant); bbox+addr:state filtered to the Atlanta MSA from eda/research/restaurants_raw.geojson, see eda/fetch_restaurants.py"
  },
  {
    "name": "Apres Diem",
    "lat": 33.7791816,
    "lon": -84.3671568,
    "cuisine": "european",
    "source": "OpenStreetMap Overpass API (amenity=restaurant); bbox+addr:state filtered to the Atlanta MSA from eda/research/restaurants_raw.geojson, see eda/fetch_restaurants.py"
  },
  {
    "name": "Arden's Garden",
    "lat": 33.7509481,
    "lon": -84.3218588,
    "cuisine": "juice;smoothie",
    "source": "OpenStreetMap Overpass API (amenity=restaurant); bbox+addr:state filtered to the Atlanta MSA from eda/research/restaurants_raw.geojson, see eda/fetch_restaurants.py"
  },
  {
    "name": "Arden's Garden",
    "lat": 33.7243001,
    "lon": -84.7667746,
    "cuisine": "smoothie",
    "source": "OpenStreetMap Overpass API (amenity=restaurant); bbox+addr:state filtered to the Atlanta MSA from eda/research/restaurants_raw.geojson, see eda/fetch_restaurants.py"
  },
  {
    "name": "Arditi Pizzaria",
    "lat": 33.8874813,
    "lon": -84.0587186,
    "cuisine": "pizza",
    "source": "OpenStreetMap Overpass API (amenity=restaurant); bbox+addr:state filtered to the Atlanta MSA from eda/research/restaurants_raw.geojson, see eda/fetch_restaurants.py"
  },
  {
    "name": "Arepa Grill",
    "lat": 33.8973796,
    "lon": -84.282024,
    "cuisine": "venezuelan",
    "source": "OpenStreetMap Overpass API (amenity=restaurant); bbox+addr:state filtered to the Atlanta MSA from eda/research/restaurants_raw.geojson, see eda/fetch_restaurants.py"
  },
  {
    "name": "Arepa Mia",
    "lat": 33.7770981,
    "lon": -84.2674198,
    "cuisine": "venezuelan",
    "source": "OpenStreetMap Overpass API (amenity=restaurant); bbox+addr:state filtered to the Atlanta MSA from eda/research/restaurants_raw.geojson, see eda/fetch_restaurants.py"
  },
  {
    "name": "Argosy",
    "lat": 33.7413311,
    "lon": -84.3462224,
    "cuisine": "american",
    "source": "OpenStreetMap Overpass API (amenity=restaurant); bbox+addr:state filtered to the Atlanta MSA from eda/research/restaurants_raw.geojson, see eda/fetch_restaurants.py"
  },
  {
    "name": "Ari Korean BBQ",
    "lat": 34.0175211,
    "lon": -84.1910245,
    "cuisine": "korean",
    "source": "OpenStreetMap Overpass API (amenity=restaurant); bbox+addr:state filtered to the Atlanta MSA from eda/research/restaurants_raw.geojson, see eda/fetch_restaurants.py"
  },
  {
    "name": "Armando's Taqueria",
    "lat": 34.0199843,
    "lon": -84.1590762,
    "cuisine": "mexican",
    "source": "OpenStreetMap Overpass API (amenity=restaurant); bbox+addr:state filtered to the Atlanta MSA from eda/research/restaurants_raw.geojson, see eda/fetch_restaurants.py"
  },
  {
    "name": "Aroma Indian Bistro",
    "lat": 34.0650939,
    "lon": -84.4226996,
    "cuisine": "indian",
    "source": "OpenStreetMap Overpass API (amenity=restaurant); bbox+addr:state filtered to the Atlanta MSA from eda/research/restaurants_raw.geojson, see eda/fetch_restaurants.py"
  },
  {
    "name": "Asahi Japanese Steak & Sushi",
    "lat": 34.0360022,
    "lon": -84.4668317,
    "cuisine": "japanese;sushi",
    "source": "OpenStreetMap Overpass API (amenity=restaurant); bbox+addr:state filtered to the Atlanta MSA from eda/research/restaurants_raw.geojson, see eda/fetch_restaurants.py"
  },
  {
    "name": "Ashland",
    "lat": 33.783192,
    "lon": -84.3831036,
    "cuisine": "japanese;steak_house;sushi",
    "source": "OpenStreetMap Overpass API (amenity=restaurant); bbox+addr:state filtered to the Atlanta MSA from eda/research/restaurants_raw.geojson, see eda/fetch_restaurants.py"
  },
  {
    "name": "Asia Grill and Buffet",
    "lat": 34.0869887,
    "lon": -83.9917414,
    "cuisine": "asian",
    "source": "OpenStreetMap Overpass API (amenity=restaurant); bbox+addr:state filtered to the Atlanta MSA from eda/research/restaurants_raw.geojson, see eda/fetch_restaurants.py"
  },
  {
    "name": "Asian Buffet",
    "lat": 33.8243852,
    "lon": -84.1224521,
    "cuisine": "asian",
    "source": "OpenStreetMap Overpass API (amenity=restaurant); bbox+addr:state filtered to the Atlanta MSA from eda/research/restaurants_raw.geojson, see eda/fetch_restaurants.py"
  },
  {
    "name": "Asian Chao",
    "lat": 33.637664,
    "lon": -84.4390855,
    "cuisine": "asian",
    "source": "OpenStreetMap Overpass API (amenity=restaurant); bbox+addr:state filtered to the Atlanta MSA from eda/research/restaurants_raw.geojson, see eda/fetch_restaurants.py"
  },
  {
    "name": "Asian Express",
    "lat": 33.9347241,
    "lon": -84.0276061,
    "cuisine": "sushi",
    "source": "OpenStreetMap Overpass API (amenity=restaurant); bbox+addr:state filtered to the Atlanta MSA from eda/research/restaurants_raw.geojson, see eda/fetch_restaurants.py"
  },
  {
    "name": "Asian Foodie & Bubble Drink",
    "lat": 34.0325485,
    "lon": -84.5286493,
    "cuisine": "bubble_tea;thai;asian",
    "source": "OpenStreetMap Overpass API (amenity=restaurant); bbox+addr:state filtered to the Atlanta MSA from eda/research/restaurants_raw.geojson, see eda/fetch_restaurants.py"
  },
  {
    "name": "Asian Fusion",
    "lat": 33.7770241,
    "lon": -84.389256,
    "cuisine": "asian",
    "source": "OpenStreetMap Overpass API (amenity=restaurant); bbox+addr:state filtered to the Atlanta MSA from eda/research/restaurants_raw.geojson, see eda/fetch_restaurants.py"
  },
  {
    "name": "Asian Fusion Chinese Thai & Sushi",
    "lat": 33.9931723,
    "lon": -84.5994835,
    "cuisine": "chinese;sushi;thai",
    "source": "OpenStreetMap Overpass API (amenity=restaurant); bbox+addr:state filtered to the Atlanta MSA from eda/research/restaurants_raw.geojson, see eda/fetch_restaurants.py"
  },
  {
    "name": "Asian Garden",
    "lat": 34.0340868,
    "lon": -84.6843455,
    "cuisine": "chinese",
    "source": "OpenStreetMap Overpass API (amenity=restaurant); bbox+addr:state filtered to the Atlanta MSA from eda/research/restaurants_raw.geojson, see eda/fetch_restaurants.py"
  },
  {
    "name": "Asian Kitchen",
    "lat": 34.0049138,
    "lon": -84.2938082,
    "cuisine": "asian",
    "source": "OpenStreetMap Overpass API (amenity=restaurant); bbox+addr:state filtered to the Atlanta MSA from eda/research/restaurants_raw.geojson, see eda/fetch_restaurants.py"
  },
  {
    "name": "Asian Wok",
    "lat": 34.0127969,
    "lon": -84.5661315,
    "cuisine": "asian",
    "source": "OpenStreetMap Overpass API (amenity=restaurant); bbox+addr:state filtered to the Atlanta MSA from eda/research/restaurants_raw.geojson, see eda/fetch_restaurants.py"
  },
  {
    "name": "Aspens Signature Steaks",
    "lat": 34.0363392,
    "lon": -84.4667908,
    "cuisine": "steak",
    "source": "OpenStreetMap Overpass API (amenity=restaurant); bbox+addr:state filtered to the Atlanta MSA from eda/research/restaurants_raw.geojson, see eda/fetch_restaurants.py"
  },
  {
    "name": "Aspens Signature Steaks",
    "lat": 33.9527019,
    "lon": -84.6582898,
    "cuisine": "steak_house",
    "source": "OpenStreetMap Overpass API (amenity=restaurant); bbox+addr:state filtered to the Atlanta MSA from eda/research/restaurants_raw.geojson, see eda/fetch_restaurants.py"
  },
  {
    "name": "Atalian Kitchen & Bar",
    "lat": 33.7599778,
    "lon": -84.3859249,
    "cuisine": "italian",
    "source": "OpenStreetMap Overpass API (amenity=restaurant); bbox+addr:state filtered to the Atlanta MSA from eda/research/restaurants_raw.geojson, see eda/fetch_restaurants.py"
  },
  {
    "name": "Atami Grill & Sushi Canton",
    "lat": 34.1706018,
    "lon": -84.4170923,
    "cuisine": "asian;sushi",
    "source": "OpenStreetMap Overpass API (amenity=restaurant); bbox+addr:state filtered to the Atlanta MSA from eda/research/restaurants_raw.geojson, see eda/fetch_restaurants.py"
  },
  {
    "name": "Atami Sushi & Grill",
    "lat": 34.0489568,
    "lon": -84.6014735,
    "cuisine": "sushi;asian",
    "source": "OpenStreetMap Overpass API (amenity=restaurant); bbox+addr:state filtered to the Atlanta MSA from eda/research/restaurants_raw.geojson, see eda/fetch_restaurants.py"
  },
  {
    "name": "Ate Track Bar & Grill",
    "lat": 34.166916,
    "lon": -84.795569,
    "cuisine": "american",
    "source": "OpenStreetMap Overpass API (amenity=restaurant); bbox+addr:state filtered to the Atlanta MSA from eda/research/restaurants_raw.geojson, see eda/fetch_restaurants.py"
  },
  {
    "name": "Athena's Greek Cuisine",
    "lat": 33.3971985,
    "lon": -84.600116,
    "cuisine": null,
    "source": "OpenStreetMap Overpass API (amenity=restaurant); bbox+addr:state filtered to the Atlanta MSA from eda/research/restaurants_raw.geojson, see eda/fetch_restaurants.py"
  },
  {
    "name": "Athens Grill",
    "lat": 33.9195601,
    "lon": -84.0159199,
    "cuisine": "mediterranean;greek",
    "source": "OpenStreetMap Overpass API (amenity=restaurant); bbox+addr:state filtered to the Atlanta MSA from eda/research/restaurants_raw.geojson, see eda/fetch_restaurants.py"
  },
  {
    "name": "Athens Pizza",
    "lat": 33.7918982,
    "lon": -84.3054055,
    "cuisine": null,
    "source": "OpenStreetMap Overpass API (amenity=restaurant); bbox+addr:state filtered to the Atlanta MSA from eda/research/restaurants_raw.geojson, see eda/fetch_restaurants.py"
  },
  {
    "name": "Atkin's Park",
    "lat": 33.776144,
    "lon": -84.35268,
    "cuisine": "american",
    "source": "OpenStreetMap Overpass API (amenity=restaurant); bbox+addr:state filtered to the Atlanta MSA from eda/research/restaurants_raw.geojson, see eda/fetch_restaurants.py"
  },
  {
    "name": "Atkins Park",
    "lat": 33.8842853,
    "lon": -84.5151091,
    "cuisine": null,
    "source": "OpenStreetMap Overpass API (amenity=restaurant); bbox+addr:state filtered to the Atlanta MSA from eda/research/restaurants_raw.geojson, see eda/fetch_restaurants.py"
  },
  {
    "name": "Atlanta Braves Grill",
    "lat": 33.639074,
    "lon": -84.4294084,
    "cuisine": null,
    "source": "OpenStreetMap Overpass API (amenity=restaurant); bbox+addr:state filtered to the Atlanta MSA from eda/research/restaurants_raw.geojson, see eda/fetch_restaurants.py"
  },
  {
    "name": "Atlanta Bread",
    "lat": 34.1543862,
    "lon": -84.1761832,
    "cuisine": null,
    "source": "OpenStreetMap Overpass API (amenity=restaurant); bbox+addr:state filtered to the Atlanta MSA from eda/research/restaurants_raw.geojson, see eda/fetch_restaurants.py"
  },
  {
    "name": "Atlanta Bread & Bar",
    "lat": 33.6396196,
    "lon": -84.4392831,
    "cuisine": null,
    "source": "OpenStreetMap Overpass API (amenity=restaurant); bbox+addr:state filtered to the Atlanta MSA from eda/research/restaurants_raw.geojson, see eda/fetch_restaurants.py"
  },
  {
    "name": "Atlanta Bread Company",
    "lat": 33.9790025,
    "lon": -84.218379,
    "cuisine": null,
    "source": "OpenStreetMap Overpass API (amenity=restaurant); bbox+addr:state filtered to the Atlanta MSA from eda/research/restaurants_raw.geojson, see eda/fetch_restaurants.py"
  },
  {
    "name": "Atlanta Breakfast Club",
    "lat": 33.7649646,
    "lon": -84.3954744,
    "cuisine": "breakfast",
    "source": "OpenStreetMap Overpass API (amenity=restaurant); bbox+addr:state filtered to the Atlanta MSA from eda/research/restaurants_raw.geojson, see eda/fetch_restaurants.py"
  },
  {
    "name": "Atlanta Chophouse",
    "lat": 33.6409591,
    "lon": -84.4445676,
    "cuisine": null,
    "source": "OpenStreetMap Overpass API (amenity=restaurant); bbox+addr:state filtered to the Atlanta MSA from eda/research/restaurants_raw.geojson, see eda/fetch_restaurants.py"
  },
  {
    "name": "Atlanta Fish Market",
    "lat": 33.8366928,
    "lon": -84.3788028,
    "cuisine": "seafood",
    "source": "OpenStreetMap Overpass API (amenity=restaurant); bbox+addr:state filtered to the Atlanta MSA from eda/research/restaurants_raw.geojson, see eda/fetch_restaurants.py"
  },
  {
    "name": "Atlanta Hawks Bar & Grill",
    "lat": 33.6436938,
    "lon": -84.4392094,
    "cuisine": "american",
    "source": "OpenStreetMap Overpass API (amenity=restaurant); bbox+addr:state filtered to the Atlanta MSA from eda/research/restaurants_raw.geojson, see eda/fetch_restaurants.py"
  },
  {
    "name": "Atlanta Pizza",
    "lat": 33.648487,
    "lon": -84.0121848,
    "cuisine": "greek",
    "source": "OpenStreetMap Overpass API (amenity=restaurant); bbox+addr:state filtered to the Atlanta MSA from eda/research/restaurants_raw.geojson, see eda/fetch_restaurants.py"
  },
  {
    "name": "Atlantic Buffet",
    "lat": 33.9453714,
    "lon": -84.5188142,
    "cuisine": "asian",
    "source": "OpenStreetMap Overpass API (amenity=restaurant); bbox+addr:state filtered to the Atlanta MSA from eda/research/restaurants_raw.geojson, see eda/fetch_restaurants.py"
  },
  {
    "name": "Atlas",
    "lat": 33.8399596,
    "lon": -84.382688,
    "cuisine": "american",
    "source": "OpenStreetMap Overpass API (amenity=restaurant); bbox+addr:state filtered to the Atlanta MSA from eda/research/restaurants_raw.geojson, see eda/fetch_restaurants.py"
  },
  {
    "name": "Atmosphere",
    "lat": 33.7988349,
    "lon": -84.3683433,
    "cuisine": "french",
    "source": "OpenStreetMap Overpass API (amenity=restaurant); bbox+addr:state filtered to the Atlanta MSA from eda/research/restaurants_raw.geojson, see eda/fetch_restaurants.py"
  },
  {
    "name": "Atwoods",
    "lat": 33.7774379,
    "lon": -84.3870433,
    "cuisine": "pizza",
    "source": "OpenStreetMap Overpass API (amenity=restaurant); bbox+addr:state filtered to the Atlanta MSA from eda/research/restaurants_raw.geojson, see eda/fetch_restaurants.py"
  },
  {
    "name": "Augie's Breakfast Bar",
    "lat": 33.7588191,
    "lon": -84.3489802,
    "cuisine": null,
    "source": "OpenStreetMap Overpass API (amenity=restaurant); bbox+addr:state filtered to the Atlanta MSA from eda/research/restaurants_raw.geojson, see eda/fetch_restaurants.py"
  },
  {
    "name": "Augie's Cafe",
    "lat": 33.7432212,
    "lon": -84.4379192,
    "cuisine": "american;breakfast",
    "source": "OpenStreetMap Overpass API (amenity=restaurant); bbox+addr:state filtered to the Atlanta MSA from eda/research/restaurants_raw.geojson, see eda/fetch_restaurants.py"
  },
  {
    "name": "Aunt Betty's Halal Soul Food",
    "lat": 33.5845654,
    "lon": -83.9123855,
    "cuisine": "american;soul",
    "source": "OpenStreetMap Overpass API (amenity=restaurant); bbox+addr:state filtered to the Atlanta MSA from eda/research/restaurants_raw.geojson, see eda/fetch_restaurants.py"
  },
  {
    "name": "Aunt Dyann's",
    "lat": 34.420969,
    "lon": -84.1169952,
    "cuisine": "american;regional",
    "source": "OpenStreetMap Overpass API (amenity=restaurant); bbox+addr:state filtered to the Atlanta MSA from eda/research/restaurants_raw.geojson, see eda/fetch_restaurants.py"
  },
  {
    "name": "Avatar Indian Cuisine - Canton",
    "lat": 34.2228409,
    "lon": -84.5053087,
    "cuisine": "indian",
    "source": "OpenStreetMap Overpass API (amenity=restaurant); bbox+addr:state filtered to the Atlanta MSA from eda/research/restaurants_raw.geojson, see eda/fetch_restaurants.py"
  },
  {
    "name": "Avellino's",
    "lat": 33.8810192,
    "lon": -84.3426608,
    "cuisine": "italian",
    "source": "OpenStreetMap Overpass API (amenity=restaurant); bbox+addr:state filtered to the Atlanta MSA from eda/research/restaurants_raw.geojson, see eda/fetch_restaurants.py"
  },
  {
    "name": "Avinya Indian Cuisine",
    "lat": 34.0556564,
    "lon": -84.5550038,
    "cuisine": "indian",
    "source": "OpenStreetMap Overpass API (amenity=restaurant); bbox+addr:state filtered to the Atlanta MSA from eda/research/restaurants_raw.geojson, see eda/fetch_restaurants.py"
  },
  {
    "name": "Avondale Pizza Cafe",
    "lat": 33.7746589,
    "lon": -84.2742429,
    "cuisine": "pizza",
    "source": "OpenStreetMap Overpass API (amenity=restaurant); bbox+addr:state filtered to the Atlanta MSA from eda/research/restaurants_raw.geojson, see eda/fetch_restaurants.py"
  },
  {
    "name": "Azul Tequila",
    "lat": 33.4228349,
    "lon": -84.5593795,
    "cuisine": null,
    "source": "OpenStreetMap Overpass API (amenity=restaurant); bbox+addr:state filtered to the Atlanta MSA from eda/research/restaurants_raw.geojson, see eda/fetch_restaurants.py"
  },
  {
    "name": "B's CRACKLIN' BBQ",
    "lat": 33.8120504,
    "lon": -84.4721103,
    "cuisine": "barbecue",
    "source": "OpenStreetMap Overpass API (amenity=restaurant); bbox+addr:state filtered to the Atlanta MSA from eda/research/restaurants_raw.geojson, see eda/fetch_restaurants.py"
  },
  {
    "name": "B.A.D. Gyal Vegan",
    "lat": 33.9541837,
    "lon": -84.5512875,
    "cuisine": "regional",
    "source": "OpenStreetMap Overpass API (amenity=restaurant); bbox+addr:state filtered to the Atlanta MSA from eda/research/restaurants_raw.geojson, see eda/fetch_restaurants.py"
  },
  {
    "name": "B.B.Q. Corner",
    "lat": 33.892597,
    "lon": -84.2848199,
    "cuisine": "chinese",
    "source": "OpenStreetMap Overpass API (amenity=restaurant); bbox+addr:state filtered to the Atlanta MSA from eda/research/restaurants_raw.geojson, see eda/fetch_restaurants.py"
  },
  {
    "name": "BAO GOGO",
    "lat": 34.0876367,
    "lon": -84.2668992,
    "cuisine": null,
    "source": "OpenStreetMap Overpass API (amenity=restaurant); bbox+addr:state filtered to the Atlanta MSA from eda/research/restaurants_raw.geojson, see eda/fetch_restaurants.py"
  },
  {
    "name": "BB Myun",
    "lat": 33.9603898,
    "lon": -84.133979,
    "cuisine": "asian;noodle",
    "source": "OpenStreetMap Overpass API (amenity=restaurant); bbox+addr:state filtered to the Atlanta MSA from eda/research/restaurants_raw.geojson, see eda/fetch_restaurants.py"
  },
  {
    "name": "BB's Bagels",
    "lat": 34.1291391,
    "lon": -84.228543,
    "cuisine": "bagel",
    "source": "OpenStreetMap Overpass API (amenity=restaurant); bbox+addr:state filtered to the Atlanta MSA from eda/research/restaurants_raw.geojson, see eda/fetch_restaurants.py"
  },
  {
    "name": "BBQ Corner 2",
    "lat": 33.8935086,
    "lon": -84.2847993,
    "cuisine": null,
    "source": "OpenStreetMap Overpass API (amenity=restaurant); bbox+addr:state filtered to the Atlanta MSA from eda/research/restaurants_raw.geojson, see eda/fetch_restaurants.py"
  },
  {
    "name": "BBQ Masters",
    "lat": 33.5538592,
    "lon": -84.2612374,
    "cuisine": "barbecue",
    "source": "OpenStreetMap Overpass API (amenity=restaurant); bbox+addr:state filtered to the Atlanta MSA from eda/research/restaurants_raw.geojson, see eda/fetch_restaurants.py"
  },
  {
    "name": "BGR Grille",
    "lat": 33.6787773,
    "lon": -84.4413506,
    "cuisine": null,
    "source": "OpenStreetMap Overpass API (amenity=restaurant); bbox+addr:state filtered to the Atlanta MSA from eda/research/restaurants_raw.geojson, see eda/fetch_restaurants.py"
  },
  {
    "name": "BQ Wings",
    "lat": 33.9980135,
    "lon": -84.1683647,
    "cuisine": "korean",
    "source": "OpenStreetMap Overpass API (amenity=restaurant); bbox+addr:state filtered to the Atlanta MSA from eda/research/restaurants_raw.geojson, see eda/fetch_restaurants.py"
  },
  {
    "name": "Baan Thai",
    "lat": 33.643353,
    "lon": -84.0227702,
    "cuisine": "thai",
    "source": "OpenStreetMap Overpass API (amenity=restaurant); bbox+addr:state filtered to the Atlanta MSA from eda/research/restaurants_raw.geojson, see eda/fetch_restaurants.py"
  },
  {
    "name": "Babs Midtown",
    "lat": 33.7767491,
    "lon": -84.3831638,
    "cuisine": "burger",
    "source": "OpenStreetMap Overpass API (amenity=restaurant); bbox+addr:state filtered to the Atlanta MSA from eda/research/restaurants_raw.geojson, see eda/fetch_restaurants.py"
  },
  {
    "name": "Baby Jane's",
    "lat": 33.9109746,
    "lon": -84.7985554,
    "cuisine": "regional",
    "source": "OpenStreetMap Overpass API (amenity=restaurant); bbox+addr:state filtered to the Atlanta MSA from eda/research/restaurants_raw.geojson, see eda/fetch_restaurants.py"
  },
  {
    "name": "Baby Jane's Home Cooking",
    "lat": 33.4483309,
    "lon": -84.1423055,
    "cuisine": "american",
    "source": "OpenStreetMap Overpass API (amenity=restaurant); bbox+addr:state filtered to the Atlanta MSA from eda/research/restaurants_raw.geojson, see eda/fetch_restaurants.py"
  },
  {
    "name": "Babygirl",
    "lat": 33.7506654,
    "lon": -84.30959,
    "cuisine": "coffee_shop",
    "source": "OpenStreetMap Overpass API (amenity=restaurant); bbox+addr:state filtered to the Atlanta MSA from eda/research/restaurants_raw.geojson, see eda/fetch_restaurants.py"
  },
  {
    "name": "Babylon Caf\u00e9",
    "lat": 33.8167004,
    "lon": -84.3517808,
    "cuisine": null,
    "source": "OpenStreetMap Overpass API (amenity=restaurant); bbox+addr:state filtered to the Atlanta MSA from eda/research/restaurants_raw.geojson, see eda/fetch_restaurants.py"
  },
  {
    "name": "Bacchanalia",
    "lat": 33.7947137,
    "lon": -84.4272646,
    "cuisine": "american",
    "source": "OpenStreetMap Overpass API (amenity=restaurant); bbox+addr:state filtered to the Atlanta MSA from eda/research/restaurants_raw.geojson, see eda/fetch_restaurants.py"
  },
  {
    "name": "Bachi Box",
    "lat": 33.7780374,
    "lon": -84.3846159,
    "cuisine": "asian;wings",
    "source": "OpenStreetMap Overpass API (amenity=restaurant); bbox+addr:state filtered to the Atlanta MSA from eda/research/restaurants_raw.geojson, see eda/fetch_restaurants.py"
  },
  {
    "name": "Bad Daddy's Burger Bar",
    "lat": 33.7937504,
    "lon": -84.2834425,
    "cuisine": null,
    "source": "OpenStreetMap Overpass API (amenity=restaurant); bbox+addr:state filtered to the Atlanta MSA from eda/research/restaurants_raw.geojson, see eda/fetch_restaurants.py"
  },
  {
    "name": "Bagel Boys Cafe",
    "lat": 34.0707014,
    "lon": -84.2948934,
    "cuisine": null,
    "source": "OpenStreetMap Overpass API (amenity=restaurant); bbox+addr:state filtered to the Atlanta MSA from eda/research/restaurants_raw.geojson, see eda/fetch_restaurants.py"
  },
  {
    "name": "Bahama Breeze",
    "lat": 34.0062455,
    "lon": -84.5727269,
    "cuisine": "caribbean",
    "source": "OpenStreetMap Overpass API (amenity=restaurant); bbox+addr:state filtered to the Atlanta MSA from eda/research/restaurants_raw.geojson, see eda/fetch_restaurants.py"
  },
  {
    "name": "Ball Ground Burger Bus",
    "lat": 34.3382723,
    "lon": -84.3764283,
    "cuisine": "burger",
    "source": "OpenStreetMap Overpass API (amenity=restaurant); bbox+addr:state filtered to the Atlanta MSA from eda/research/restaurants_raw.geojson, see eda/fetch_restaurants.py"
  },
  {
    "name": "Bally Budaejjigae",
    "lat": 34.0052865,
    "lon": -84.0839133,
    "cuisine": "korean",
    "source": "OpenStreetMap Overpass API (amenity=restaurant); bbox+addr:state filtered to the Atlanta MSA from eda/research/restaurants_raw.geojson, see eda/fetch_restaurants.py"
  },
  {
    "name": "Bambinelli's",
    "lat": 33.842801,
    "lon": -84.2444019,
    "cuisine": null,
    "source": "OpenStreetMap Overpass API (amenity=restaurant); bbox+addr:state filtered to the Atlanta MSA from eda/research/restaurants_raw.geojson, see eda/fetch_restaurants.py"
  },
  {
    "name": "Bambinelli's Pizza & Pasta",
    "lat": 34.0226083,
    "lon": -84.2867967,
    "cuisine": "italian",
    "source": "OpenStreetMap Overpass API (amenity=restaurant); bbox+addr:state filtered to the Atlanta MSA from eda/research/restaurants_raw.geojson, see eda/fetch_restaurants.py"
  },
  {
    "name": "Bamboo Garden",
    "lat": 34.37843,
    "lon": -84.9322948,
    "cuisine": "chinese",
    "source": "OpenStreetMap Overpass API (amenity=restaurant); bbox+addr:state filtered to the Atlanta MSA from eda/research/restaurants_raw.geojson, see eda/fetch_restaurants.py"
  },
  {
    "name": "Bangkok Cabin",
    "lat": 34.0363351,
    "lon": -84.6057455,
    "cuisine": "thai",
    "source": "OpenStreetMap Overpass API (amenity=restaurant); bbox+addr:state filtered to the Atlanta MSA from eda/research/restaurants_raw.geojson, see eda/fetch_restaurants.py"
  },
  {
    "name": "Bangkok Grill Thai Cuisine",
    "lat": 33.6039601,
    "lon": -83.8705467,
    "cuisine": "thai",
    "source": "OpenStreetMap Overpass API (amenity=restaurant); bbox+addr:state filtered to the Atlanta MSA from eda/research/restaurants_raw.geojson, see eda/fetch_restaurants.py"
  },
  {
    "name": "Bangkok Station",
    "lat": 33.8373434,
    "lon": -84.3700508,
    "cuisine": null,
    "source": "OpenStreetMap Overpass API (amenity=restaurant); bbox+addr:state filtered to the Atlanta MSA from eda/research/restaurants_raw.geojson, see eda/fetch_restaurants.py"
  },
  {
    "name": "Bangkok Street Food",
    "lat": 33.8838083,
    "lon": -84.3160012,
    "cuisine": "thai",
    "source": "OpenStreetMap Overpass API (amenity=restaurant); bbox+addr:state filtered to the Atlanta MSA from eda/research/restaurants_raw.geojson, see eda/fetch_restaurants.py"
  },
  {
    "name": "Bangkok Thai Restaurant",
    "lat": 33.7958055,
    "lon": -84.3709003,
    "cuisine": "thai",
    "source": "OpenStreetMap Overpass API (amenity=restaurant); bbox+addr:state filtered to the Atlanta MSA from eda/research/restaurants_raw.geojson, see eda/fetch_restaurants.py"
  },
  {
    "name": "Banshee",
    "lat": 33.7400282,
    "lon": -84.3459555,
    "cuisine": null,
    "source": "OpenStreetMap Overpass API (amenity=restaurant); bbox+addr:state filtered to the Atlanta MSA from eda/research/restaurants_raw.geojson, see eda/fetch_restaurants.py"
  },
  {
    "name": "Bantam and Biddy",
    "lat": 33.798267,
    "lon": -84.370892,
    "cuisine": null,
    "source": "OpenStreetMap Overpass API (amenity=restaurant); bbox+addr:state filtered to the Atlanta MSA from eda/research/restaurants_raw.geojson, see eda/fetch_restaurants.py"
  },
  {
    "name": "Bao Bun Hibachi",
    "lat": 33.8012264,
    "lon": -84.4134364,
    "cuisine": "taiwanese",
    "source": "OpenStreetMap Overpass API (amenity=restaurant); bbox+addr:state filtered to the Atlanta MSA from eda/research/restaurants_raw.geojson, see eda/fetch_restaurants.py"
  },
  {
    "name": "Bar Of Thailand",
    "lat": 33.7828397,
    "lon": -84.3803506,
    "cuisine": "thai",
    "source": "OpenStreetMap Overpass API (amenity=restaurant); bbox+addr:state filtered to the Atlanta MSA from eda/research/restaurants_raw.geojson, see eda/fetch_restaurants.py"
  },
  {
    "name": "Bar Taco",
    "lat": 33.8583693,
    "lon": -84.3814764,
    "cuisine": "mexican",
    "source": "OpenStreetMap Overpass API (amenity=restaurant); bbox+addr:state filtered to the Atlanta MSA from eda/research/restaurants_raw.geojson, see eda/fetch_restaurants.py"
  },
  {
    "name": "Bar Vegan",
    "lat": 33.7728212,
    "lon": -84.3659039,
    "cuisine": "american",
    "source": "OpenStreetMap Overpass API (amenity=restaurant); bbox+addr:state filtered to the Atlanta MSA from eda/research/restaurants_raw.geojson, see eda/fetch_restaurants.py"
  },
  {
    "name": "Bar-B-Cutie",
    "lat": 34.0400447,
    "lon": -84.6909495,
    "cuisine": null,
    "source": "OpenStreetMap Overpass API (amenity=restaurant); bbox+addr:state filtered to the Atlanta MSA from eda/research/restaurants_raw.geojson, see eda/fetch_restaurants.py"
  },
  {
    "name": "Bar.bacoa",
    "lat": 33.7825069,
    "lon": -84.3546814,
    "cuisine": "spanish",
    "source": "OpenStreetMap Overpass API (amenity=restaurant); bbox+addr:state filtered to the Atlanta MSA from eda/research/restaurants_raw.geojson, see eda/fetch_restaurants.py"
  },
  {
    "name": "Baraka Shawarma Mediterranean Cuisine",
    "lat": 33.756456,
    "lon": -84.3910642,
    "cuisine": "shawarma;mediterranean",
    "source": "OpenStreetMap Overpass API (amenity=restaurant); bbox+addr:state filtered to the Atlanta MSA from eda/research/restaurants_raw.geojson, see eda/fetch_restaurants.py"
  },
  {
    "name": "Barbecue Kitchen",
    "lat": 33.6595795,
    "lon": -84.4361339,
    "cuisine": "barbecue",
    "source": "OpenStreetMap Overpass API (amenity=restaurant); bbox+addr:state filtered to the Atlanta MSA from eda/research/restaurants_raw.geojson, see eda/fetch_restaurants.py"
  },
  {
    "name": "Barberitos",
    "lat": 33.833732,
    "lon": -84.3843117,
    "cuisine": "mexican",
    "source": "OpenStreetMap Overpass API (amenity=restaurant); bbox+addr:state filtered to the Atlanta MSA from eda/research/restaurants_raw.geojson, see eda/fetch_restaurants.py"
  },
  {
    "name": "Barberitos Southwestern Grille & Cantina",
    "lat": 33.9454565,
    "lon": -83.7496807,
    "cuisine": "mexican",
    "source": "OpenStreetMap Overpass API (amenity=restaurant); bbox+addr:state filtered to the Atlanta MSA from eda/research/restaurants_raw.geojson, see eda/fetch_restaurants.py"
  },
  {
    "name": "Barcelona",
    "lat": 33.7846191,
    "lon": -84.410843,
    "cuisine": null,
    "source": "OpenStreetMap Overpass API (amenity=restaurant); bbox+addr:state filtered to the Atlanta MSA from eda/research/restaurants_raw.geojson, see eda/fetch_restaurants.py"
  },
  {
    "name": "Barley Garden",
    "lat": 33.4703458,
    "lon": -84.5074812,
    "cuisine": "american",
    "source": "OpenStreetMap Overpass API (amenity=restaurant); bbox+addr:state filtered to the Atlanta MSA from eda/research/restaurants_raw.geojson, see eda/fetch_restaurants.py"
  },
  {
    "name": "Barleygarden Kitchen & Craft Bar",
    "lat": 34.0707951,
    "lon": -84.2734804,
    "cuisine": "american",
    "source": "OpenStreetMap Overpass API (amenity=restaurant); bbox+addr:state filtered to the Atlanta MSA from eda/research/restaurants_raw.geojson, see eda/fetch_restaurants.py"
  },
  {
    "name": "Barnstormer's Grill and Event Center",
    "lat": 33.1806596,
    "lon": -84.3759363,
    "cuisine": "burger;sandwich;chicken;seafood;steak_house;american;diner;cafe;grill",
    "source": "OpenStreetMap Overpass API (amenity=restaurant); bbox+addr:state filtered to the Atlanta MSA from eda/research/restaurants_raw.geojson, see eda/fetch_restaurants.py"
  },
  {
    "name": "Bartaco",
    "lat": 33.7624419,
    "lon": -84.3585841,
    "cuisine": "tacos",
    "source": "OpenStreetMap Overpass API (amenity=restaurant); bbox+addr:state filtered to the Atlanta MSA from eda/research/restaurants_raw.geojson, see eda/fetch_restaurants.py"
  },
  {
    "name": "Bartaco",
    "lat": 33.8651838,
    "lon": -84.4675438,
    "cuisine": "mexican",
    "source": "OpenStreetMap Overpass API (amenity=restaurant); bbox+addr:state filtered to the Atlanta MSA from eda/research/restaurants_raw.geojson, see eda/fetch_restaurants.py"
  },
  {
    "name": "Bartaco",
    "lat": 33.7789048,
    "lon": -84.4094598,
    "cuisine": "tacos",
    "source": "OpenStreetMap Overpass API (amenity=restaurant); bbox+addr:state filtered to the Atlanta MSA from eda/research/restaurants_raw.geojson, see eda/fetch_restaurants.py"
  },
  {
    "name": "Basecamp Pancakes & Provisions",
    "lat": 33.9827477,
    "lon": -84.5697512,
    "cuisine": "southern;american;breakfast",
    "source": "OpenStreetMap Overpass API (amenity=restaurant); bbox+addr:state filtered to the Atlanta MSA from eda/research/restaurants_raw.geojson, see eda/fetch_restaurants.py"
  },
  {
    "name": "Basil's Restaurant & Tapas Bar",
    "lat": 33.8359116,
    "lon": -84.3759786,
    "cuisine": "mediterranean",
    "source": "OpenStreetMap Overpass API (amenity=restaurant); bbox+addr:state filtered to the Atlanta MSA from eda/research/restaurants_raw.geojson, see eda/fetch_restaurants.py"
  },
  {
    "name": "Basil's Restaurant & Tapas Bar",
    "lat": 33.8361585,
    "lon": -84.3759718,
    "cuisine": "restaurant",
    "source": "OpenStreetMap Overpass API (amenity=restaurant); bbox+addr:state filtered to the Atlanta MSA from eda/research/restaurants_raw.geojson, see eda/fetch_restaurants.py"
  },
  {
    "name": "Bastone",
    "lat": 33.7795053,
    "lon": -84.4099081,
    "cuisine": null,
    "source": "OpenStreetMap Overpass API (amenity=restaurant); bbox+addr:state filtered to the Atlanta MSA from eda/research/restaurants_raw.geojson, see eda/fetch_restaurants.py"
  },
  {
    "name": "Battle & Brew",
    "lat": 33.917097,
    "lon": -84.3807866,
    "cuisine": null,
    "source": "OpenStreetMap Overpass API (amenity=restaurant); bbox+addr:state filtered to the Atlanta MSA from eda/research/restaurants_raw.geojson, see eda/fetch_restaurants.py"
  },
  {
    "name": "BawarcHi Biryanis",
    "lat": 34.0128133,
    "lon": -84.5666894,
    "cuisine": "indian",
    "source": "OpenStreetMap Overpass API (amenity=restaurant); bbox+addr:state filtered to the Atlanta MSA from eda/research/restaurants_raw.geojson, see eda/fetch_restaurants.py"
  },
  {
    "name": "Bay Breeze",
    "lat": 33.442515,
    "lon": -84.321303,
    "cuisine": "seafood",
    "source": "OpenStreetMap Overpass API (amenity=restaurant); bbox+addr:state filtered to the Atlanta MSA from eda/research/restaurants_raw.geojson, see eda/fetch_restaurants.py"
  },
  {
    "name": "Be Banh Mi",
    "lat": 33.9602741,
    "lon": -84.1340452,
    "cuisine": "banhmi; asian",
    "source": "OpenStreetMap Overpass API (amenity=restaurant); bbox+addr:state filtered to the Atlanta MSA from eda/research/restaurants_raw.geojson, see eda/fetch_restaurants.py"
  },
  {
    "name": "Beaslys Drug co",
    "lat": 33.6672878,
    "lon": -84.0174361,
    "cuisine": null,
    "source": "OpenStreetMap Overpass API (amenity=restaurant); bbox+addr:state filtered to the Atlanta MSA from eda/research/restaurants_raw.geojson, see eda/fetch_restaurants.py"
  },
  {
    "name": "Beatlecat",
    "lat": 33.7626525,
    "lon": -84.358241,
    "cuisine": "seafood",
    "source": "OpenStreetMap Overpass API (amenity=restaurant); bbox+addr:state filtered to the Atlanta MSA from eda/research/restaurants_raw.geojson, see eda/fetch_restaurants.py"
  },
  {
    "name": "Bedoe's Bar & Grille",
    "lat": 34.1782022,
    "lon": -84.4217499,
    "cuisine": null,
    "source": "OpenStreetMap Overpass API (amenity=restaurant); bbox+addr:state filtered to the Atlanta MSA from eda/research/restaurants_raw.geojson, see eda/fetch_restaurants.py"
  },
  {
    "name": "Beechwood Tavern",
    "lat": 33.8553423,
    "lon": -84.4293458,
    "cuisine": null,
    "source": "OpenStreetMap Overpass API (amenity=restaurant); bbox+addr:state filtered to the Atlanta MSA from eda/research/restaurants_raw.geojson, see eda/fetch_restaurants.py"
  },
  {
    "name": "Bei Jin",
    "lat": 33.7687325,
    "lon": -84.599754,
    "cuisine": "chinese",
    "source": "OpenStreetMap Overpass API (amenity=restaurant); bbox+addr:state filtered to the Atlanta MSA from eda/research/restaurants_raw.geojson, see eda/fetch_restaurants.py"
  },
  {
    "name": "Beijing",
    "lat": 33.4304397,
    "lon": -84.8622939,
    "cuisine": "chinese",
    "source": "OpenStreetMap Overpass API (amenity=restaurant); bbox+addr:state filtered to the Atlanta MSA from eda/research/restaurants_raw.geojson, see eda/fetch_restaurants.py"
  },
  {
    "name": "Beijing House",
    "lat": 33.9074627,
    "lon": -84.2878378,
    "cuisine": "korean",
    "source": "OpenStreetMap Overpass API (amenity=restaurant); bbox+addr:state filtered to the Atlanta MSA from eda/research/restaurants_raw.geojson, see eda/fetch_restaurants.py"
  },
  {
    "name": "Bell Street Burritos",
    "lat": 33.849978,
    "lon": -84.2158795,
    "cuisine": "mexican",
    "source": "OpenStreetMap Overpass API (amenity=restaurant); bbox+addr:state filtered to the Atlanta MSA from eda/research/restaurants_raw.geojson, see eda/fetch_restaurants.py"
  },
  {
    "name": "Bell Street Burritos",
    "lat": 33.7558251,
    "lon": -84.3651117,
    "cuisine": null,
    "source": "OpenStreetMap Overpass API (amenity=restaurant); bbox+addr:state filtered to the Atlanta MSA from eda/research/restaurants_raw.geojson, see eda/fetch_restaurants.py"
  },
  {
    "name": "Bell Street Burritos",
    "lat": 33.8046378,
    "lon": -84.3937603,
    "cuisine": "mexican",
    "source": "OpenStreetMap Overpass API (amenity=restaurant); bbox+addr:state filtered to the Atlanta MSA from eda/research/restaurants_raw.geojson, see eda/fetch_restaurants.py"
  },
  {
    "name": "Bella Cucina",
    "lat": 33.838302,
    "lon": -84.3801139,
    "cuisine": null,
    "source": "OpenStreetMap Overpass API (amenity=restaurant); bbox+addr:state filtered to the Atlanta MSA from eda/research/restaurants_raw.geojson, see eda/fetch_restaurants.py"
  },
  {
    "name": "Bella Italia",
    "lat": 34.0038151,
    "lon": -84.3914644,
    "cuisine": "italian",
    "source": "OpenStreetMap Overpass API (amenity=restaurant); bbox+addr:state filtered to the Atlanta MSA from eda/research/restaurants_raw.geojson, see eda/fetch_restaurants.py"
  },
  {
    "name": "Bellini Osteria Toscana",
    "lat": 34.0486396,
    "lon": -84.3632941,
    "cuisine": "italian",
    "source": "OpenStreetMap Overpass API (amenity=restaurant); bbox+addr:state filtered to the Atlanta MSA from eda/research/restaurants_raw.geojson, see eda/fetch_restaurants.py"
  },
  {
    "name": "Belly Restaurant & Lounge",
    "lat": 33.7738376,
    "lon": -84.3849554,
    "cuisine": "american",
    "source": "OpenStreetMap Overpass API (amenity=restaurant); bbox+addr:state filtered to the Atlanta MSA from eda/research/restaurants_raw.geojson, see eda/fetch_restaurants.py"
  },
  {
    "name": "Bench Warmers",
    "lat": 33.7754414,
    "lon": -84.2994978,
    "cuisine": "american",
    "source": "OpenStreetMap Overpass API (amenity=restaurant); bbox+addr:state filtered to the Atlanta MSA from eda/research/restaurants_raw.geojson, see eda/fetch_restaurants.py"
  },
  {
    "name": "Benchwarmers Sports Grill",
    "lat": 33.6098576,
    "lon": -83.8875341,
    "cuisine": null,
    "source": "OpenStreetMap Overpass API (amenity=restaurant); bbox+addr:state filtered to the Atlanta MSA from eda/research/restaurants_raw.geojson, see eda/fetch_restaurants.py"
  },
  {
    "name": "Benihana",
    "lat": 34.0371156,
    "lon": -84.3056681,
    "cuisine": "japanese;teppanyaki;steak",
    "source": "OpenStreetMap Overpass API (amenity=restaurant); bbox+addr:state filtered to the Atlanta MSA from eda/research/restaurants_raw.geojson, see eda/fetch_restaurants.py"
  },
  {
    "name": "Benihana",
    "lat": 33.8127925,
    "lon": -84.3916046,
    "cuisine": "japanese;teppanyaki;steak",
    "source": "OpenStreetMap Overpass API (amenity=restaurant); bbox+addr:state filtered to the Atlanta MSA from eda/research/restaurants_raw.geojson, see eda/fetch_restaurants.py"
  },
  {
    "name": "Bernhard's German Bakery",
    "lat": 33.9143256,
    "lon": -84.5376736,
    "cuisine": "german",
    "source": "OpenStreetMap Overpass API (amenity=restaurant); bbox+addr:state filtered to the Atlanta MSA from eda/research/restaurants_raw.geojson, see eda/fetch_restaurants.py"
  },
  {
    "name": "Bess's Place",
    "lat": 33.5203211,
    "lon": -83.6988514,
    "cuisine": null,
    "source": "OpenStreetMap Overpass API (amenity=restaurant); bbox+addr:state filtered to the Atlanta MSA from eda/research/restaurants_raw.geojson, see eda/fetch_restaurants.py"
  },
  {
    "name": "Beto's Tacos",
    "lat": 33.9551505,
    "lon": -84.051871,
    "cuisine": "mexican",
    "source": "OpenStreetMap Overpass API (amenity=restaurant); bbox+addr:state filtered to the Atlanta MSA from eda/research/restaurants_raw.geojson, see eda/fetch_restaurants.py"
  },
  {
    "name": "Bezoria",
    "lat": 33.8804679,
    "lon": -84.4673436,
    "cuisine": "middle_eastern",
    "source": "OpenStreetMap Overpass API (amenity=restaurant); bbox+addr:state filtered to the Atlanta MSA from eda/research/restaurants_raw.geojson, see eda/fetch_restaurants.py"
  },
  {
    "name": "Bhojanic",
    "lat": 33.846034,
    "lon": -84.365571,
    "cuisine": "indian",
    "source": "OpenStreetMap Overpass API (amenity=restaurant); bbox+addr:state filtered to the Atlanta MSA from eda/research/restaurants_raw.geojson, see eda/fetch_restaurants.py"
  },
  {
    "name": "Big Bad Breakfast",
    "lat": 33.8079271,
    "lon": -84.412945,
    "cuisine": "american;breakfast",
    "source": "OpenStreetMap Overpass API (amenity=restaurant); bbox+addr:state filtered to the Atlanta MSA from eda/research/restaurants_raw.geojson, see eda/fetch_restaurants.py"
  },
  {
    "name": "Big Bear Asian Buffet",
    "lat": 33.577767,
    "lon": -85.0805611,
    "cuisine": "asian",
    "source": "OpenStreetMap Overpass API (amenity=restaurant); bbox+addr:state filtered to the Atlanta MSA from eda/research/restaurants_raw.geojson, see eda/fetch_restaurants.py"
  },
  {
    "name": "Big Boss Chinese",
    "lat": 33.781285,
    "lon": -84.3901179,
    "cuisine": "chinese",
    "source": "OpenStreetMap Overpass API (amenity=restaurant); bbox+addr:state filtered to the Atlanta MSA from eda/research/restaurants_raw.geojson, see eda/fetch_restaurants.py"
  },
  {
    "name": "Big Boss Kitchen",
    "lat": 33.5827326,
    "lon": -85.0900017,
    "cuisine": null,
    "source": "OpenStreetMap Overpass API (amenity=restaurant); bbox+addr:state filtered to the Atlanta MSA from eda/research/restaurants_raw.geojson, see eda/fetch_restaurants.py"
  },
  {
    "name": "Big Bruce BBQ Wings",
    "lat": 34.0027917,
    "lon": -84.0822292,
    "cuisine": "barbecue",
    "source": "OpenStreetMap Overpass API (amenity=restaurant); bbox+addr:state filtered to the Atlanta MSA from eda/research/restaurants_raw.geojson, see eda/fetch_restaurants.py"
  },
  {
    "name": "Big Chic",
    "lat": 33.304951,
    "lon": -83.6849031,
    "cuisine": "chicken",
    "source": "OpenStreetMap Overpass API (amenity=restaurant); bbox+addr:state filtered to the Atlanta MSA from eda/research/restaurants_raw.geojson, see eda/fetch_restaurants.py"
  },
  {
    "name": "Big Chic",
    "lat": 33.2929709,
    "lon": -83.9533772,
    "cuisine": null,
    "source": "OpenStreetMap Overpass API (amenity=restaurant); bbox+addr:state filtered to the Atlanta MSA from eda/research/restaurants_raw.geojson, see eda/fetch_restaurants.py"
  },
  {
    "name": "Big D's BBQ",
    "lat": 34.3623531,
    "lon": -84.0362286,
    "cuisine": "barbecue",
    "source": "OpenStreetMap Overpass API (amenity=restaurant); bbox+addr:state filtered to the Atlanta MSA from eda/research/restaurants_raw.geojson, see eda/fetch_restaurants.py"
  },
  {
    "name": "Big D's BBQ",
    "lat": 34.3623788,
    "lon": -84.036259,
    "cuisine": "barbecue",
    "source": "OpenStreetMap Overpass API (amenity=restaurant); bbox+addr:state filtered to the Atlanta MSA from eda/research/restaurants_raw.geojson, see eda/fetch_restaurants.py"
  },
  {
    "name": "Big D's BBQ & Biscuits",
    "lat": 34.4219797,
    "lon": -84.1227494,
    "cuisine": "barbecue",
    "source": "OpenStreetMap Overpass API (amenity=restaurant); bbox+addr:state filtered to the Atlanta MSA from eda/research/restaurants_raw.geojson, see eda/fetch_restaurants.py"
  },
  {
    "name": "Big Daddy's Dish",
    "lat": 33.6033432,
    "lon": -84.4729673,
    "cuisine": null,
    "source": "OpenStreetMap Overpass API (amenity=restaurant); bbox+addr:state filtered to the Atlanta MSA from eda/research/restaurants_raw.geojson, see eda/fetch_restaurants.py"
  },
  {
    "name": "Big Daddy's Oyster Bar",
    "lat": 33.4107658,
    "lon": -84.5673334,
    "cuisine": "seafood",
    "source": "OpenStreetMap Overpass API (amenity=restaurant); bbox+addr:state filtered to the Atlanta MSA from eda/research/restaurants_raw.geojson, see eda/fetch_restaurants.py"
  },
  {
    "name": "Big Dave's Cheesesteaks",
    "lat": 33.7617386,
    "lon": -84.3965351,
    "cuisine": null,
    "source": "OpenStreetMap Overpass API (amenity=restaurant); bbox+addr:state filtered to the Atlanta MSA from eda/research/restaurants_raw.geojson, see eda/fetch_restaurants.py"
  },
  {
    "name": "Big Easy BBQ - A Cajun Smokehouse",
    "lat": 34.1742764,
    "lon": -84.4185591,
    "cuisine": "barbecue",
    "source": "OpenStreetMap Overpass API (amenity=restaurant); bbox+addr:state filtered to the Atlanta MSA from eda/research/restaurants_raw.geojson, see eda/fetch_restaurants.py"
  },
  {
    "name": "Big Easy Louisiana Grille",
    "lat": 33.8116731,
    "lon": -84.4247042,
    "cuisine": null,
    "source": "OpenStreetMap Overpass API (amenity=restaurant); bbox+addr:state filtered to the Atlanta MSA from eda/research/restaurants_raw.geojson, see eda/fetch_restaurants.py"
  },
  {
    "name": "Big Kahuna Grill",
    "lat": 33.7627979,
    "lon": -84.3858538,
    "cuisine": "mexican;american",
    "source": "OpenStreetMap Overpass API (amenity=restaurant); bbox+addr:state filtered to the Atlanta MSA from eda/research/restaurants_raw.geojson, see eda/fetch_restaurants.py"
  },
  {
    "name": "Big Pie in the Sky",
    "lat": 34.049674,
    "lon": -84.6116105,
    "cuisine": "pizza",
    "source": "OpenStreetMap Overpass API (amenity=restaurant); bbox+addr:state filtered to the Atlanta MSA from eda/research/restaurants_raw.geojson, see eda/fetch_restaurants.py"
  },
  {
    "name": "Big Shanty Smokehouse",
    "lat": 34.0357484,
    "lon": -84.6057288,
    "cuisine": "barbecue",
    "source": "OpenStreetMap Overpass API (amenity=restaurant); bbox+addr:state filtered to the Atlanta MSA from eda/research/restaurants_raw.geojson, see eda/fetch_restaurants.py"
  },
  {
    "name": "Big-Un's Biscuits",
    "lat": 34.0661008,
    "lon": -84.8259481,
    "cuisine": null,
    "source": "OpenStreetMap Overpass API (amenity=restaurant); bbox+addr:state filtered to the Atlanta MSA from eda/research/restaurants_raw.geojson, see eda/fetch_restaurants.py"
  },
  {
    "name": "Bigun's Barbeque",
    "lat": 34.5289092,
    "lon": -84.5155525,
    "cuisine": "barbecue",
    "source": "OpenStreetMap Overpass API (amenity=restaurant); bbox+addr:state filtered to the Atlanta MSA from eda/research/restaurants_raw.geojson, see eda/fetch_restaurants.py"
  },
  {
    "name": "Billy Bob's Bar-B-Q",
    "lat": 33.5670184,
    "lon": -85.0779725,
    "cuisine": "barbecue",
    "source": "OpenStreetMap Overpass API (amenity=restaurant); bbox+addr:state filtered to the Atlanta MSA from eda/research/restaurants_raw.geojson, see eda/fetch_restaurants.py"
  },
  {
    "name": "Billy's Avondale",
    "lat": 33.7771256,
    "lon": -84.2682679,
    "cuisine": "sandwich",
    "source": "OpenStreetMap Overpass API (amenity=restaurant); bbox+addr:state filtered to the Atlanta MSA from eda/research/restaurants_raw.geojson, see eda/fetch_restaurants.py"
  },
  {
    "name": "Bird & Batter",
    "lat": 33.7596138,
    "lon": -84.3718842,
    "cuisine": "american;breakfast",
    "source": "OpenStreetMap Overpass API (amenity=restaurant); bbox+addr:state filtered to the Atlanta MSA from eda/research/restaurants_raw.geojson, see eda/fetch_restaurants.py"
  },
  {
    "name": "Biryani House",
    "lat": 34.0787102,
    "lon": -84.1617453,
    "cuisine": "indian",
    "source": "OpenStreetMap Overpass API (amenity=restaurant); bbox+addr:state filtered to the Atlanta MSA from eda/research/restaurants_raw.geojson, see eda/fetch_restaurants.py"
  },
  {
    "name": "Biryani Pot",
    "lat": 34.1619885,
    "lon": -84.1763186,
    "cuisine": "indian",
    "source": "OpenStreetMap Overpass API (amenity=restaurant); bbox+addr:state filtered to the Atlanta MSA from eda/research/restaurants_raw.geojson, see eda/fetch_restaurants.py"
  },
  {
    "name": "Biscuit Belly",
    "lat": 34.0351925,
    "lon": -84.6764607,
    "cuisine": "southern",
    "source": "OpenStreetMap Overpass API (amenity=restaurant); bbox+addr:state filtered to the Atlanta MSA from eda/research/restaurants_raw.geojson, see eda/fetch_restaurants.py"
  },
  {
    "name": "Biscuits And More",
    "lat": 34.025309,
    "lon": -84.4230166,
    "cuisine": "american",
    "source": "OpenStreetMap Overpass API (amenity=restaurant); bbox+addr:state filtered to the Atlanta MSA from eda/research/restaurants_raw.geojson, see eda/fetch_restaurants.py"
  },
  {
    "name": "Bistro Niko",
    "lat": 33.8465635,
    "lon": -84.3685683,
    "cuisine": "french",
    "source": "OpenStreetMap Overpass API (amenity=restaurant); bbox+addr:state filtered to the Atlanta MSA from eda/research/restaurants_raw.geojson, see eda/fetch_restaurants.py"
  },
  {
    "name": "Bistro Off Broad",
    "lat": 33.9924824,
    "lon": -83.719492,
    "cuisine": null,
    "source": "OpenStreetMap Overpass API (amenity=restaurant); bbox+addr:state filtered to the Atlanta MSA from eda/research/restaurants_raw.geojson, see eda/fetch_restaurants.py"
  },
  {
    "name": "Bite Bistro & Bar",
    "lat": 34.0616521,
    "lon": -84.2250171,
    "cuisine": null,
    "source": "OpenStreetMap Overpass API (amenity=restaurant); bbox+addr:state filtered to the Atlanta MSA from eda/research/restaurants_raw.geojson, see eda/fetch_restaurants.py"
  },
  {
    "name": "Bite of Korea",
    "lat": 33.7638128,
    "lon": -84.3680821,
    "cuisine": "korean",
    "source": "OpenStreetMap Overpass API (amenity=restaurant); bbox+addr:state filtered to the Atlanta MSA from eda/research/restaurants_raw.geojson, see eda/fetch_restaurants.py"
  },
  {
    "name": "Blaze Pizza",
    "lat": 33.7910424,
    "lon": -84.4069957,
    "cuisine": "pizza",
    "source": "OpenStreetMap Overpass API (amenity=restaurant); bbox+addr:state filtered to the Atlanta MSA from eda/research/restaurants_raw.geojson, see eda/fetch_restaurants.py"
  },
  {
    "name": "Blaze Pizza",
    "lat": 33.7899549,
    "lon": -84.3058637,
    "cuisine": "pizza",
    "source": "OpenStreetMap Overpass API (amenity=restaurant); bbox+addr:state filtered to the Atlanta MSA from eda/research/restaurants_raw.geojson, see eda/fetch_restaurants.py"
  },
  {
    "name": "Blaze Pizza",
    "lat": 33.8827972,
    "lon": -84.461966,
    "cuisine": "pizza",
    "source": "OpenStreetMap Overpass API (amenity=restaurant); bbox+addr:state filtered to the Atlanta MSA from eda/research/restaurants_raw.geojson, see eda/fetch_restaurants.py"
  },
  {
    "name": "Blazer's Hot Wings",
    "lat": 33.9646852,
    "lon": -83.5960613,
    "cuisine": "wings",
    "source": "OpenStreetMap Overpass API (amenity=restaurant); bbox+addr:state filtered to the Atlanta MSA from eda/research/restaurants_raw.geojson, see eda/fetch_restaurants.py"
  },
  {
    "name": "Blu Cantina",
    "lat": 33.7403365,
    "lon": -84.3468838,
    "cuisine": "mexican",
    "source": "OpenStreetMap Overpass API (amenity=restaurant); bbox+addr:state filtered to the Atlanta MSA from eda/research/restaurants_raw.geojson, see eda/fetch_restaurants.py"
  },
  {
    "name": "Blue India",
    "lat": 33.7796273,
    "lon": -84.3838628,
    "cuisine": "indian",
    "source": "OpenStreetMap Overpass API (amenity=restaurant); bbox+addr:state filtered to the Atlanta MSA from eda/research/restaurants_raw.geojson, see eda/fetch_restaurants.py"
  },
  {
    "name": "Blue Moon Brewhouse",
    "lat": 33.6391358,
    "lon": -84.4358064,
    "cuisine": null,
    "source": "OpenStreetMap Overpass API (amenity=restaurant); bbox+addr:state filtered to the Atlanta MSA from eda/research/restaurants_raw.geojson, see eda/fetch_restaurants.py"
  },
  {
    "name": "Blue Moon Pizza",
    "lat": 33.9043372,
    "lon": -84.4855837,
    "cuisine": "pizza",
    "source": "OpenStreetMap Overpass API (amenity=restaurant); bbox+addr:state filtered to the Atlanta MSA from eda/research/restaurants_raw.geojson, see eda/fetch_restaurants.py"
  },
  {
    "name": "Blue Moon Pizza",
    "lat": 33.9083921,
    "lon": -84.3631642,
    "cuisine": "pizza",
    "source": "OpenStreetMap Overpass API (amenity=restaurant); bbox+addr:state filtered to the Atlanta MSA from eda/research/restaurants_raw.geojson, see eda/fetch_restaurants.py"
  },
  {
    "name": "Blue Ribbon Grill",
    "lat": 33.8468179,
    "lon": -84.2546547,
    "cuisine": "american",
    "source": "OpenStreetMap Overpass API (amenity=restaurant); bbox+addr:state filtered to the Atlanta MSA from eda/research/restaurants_raw.geojson, see eda/fetch_restaurants.py"
  },
  {
    "name": "Blue Ridge Grill",
    "lat": 33.8496784,
    "lon": -84.4293287,
    "cuisine": "american",
    "source": "OpenStreetMap Overpass API (amenity=restaurant); bbox+addr:state filtered to the Atlanta MSA from eda/research/restaurants_raw.geojson, see eda/fetch_restaurants.py"
  },
  {
    "name": "Blue River Tavern",
    "lat": 34.0988423,
    "lon": -84.2725316,
    "cuisine": null,
    "source": "OpenStreetMap Overpass API (amenity=restaurant); bbox+addr:state filtered to the Atlanta MSA from eda/research/restaurants_raw.geojson, see eda/fetch_restaurants.py"
  },
  {
    "name": "Bluebay Seafood",
    "lat": 33.632123,
    "lon": -84.356825,
    "cuisine": "seafood",
    "source": "OpenStreetMap Overpass API (amenity=restaurant); bbox+addr:state filtered to the Atlanta MSA from eda/research/restaurants_raw.geojson, see eda/fetch_restaurants.py"
  },
  {
    "name": "Bobby G's",
    "lat": 34.0992321,
    "lon": -84.2725115,
    "cuisine": null,
    "source": "OpenStreetMap Overpass API (amenity=restaurant); bbox+addr:state filtered to the Atlanta MSA from eda/research/restaurants_raw.geojson, see eda/fetch_restaurants.py"
  },
  {
    "name": "Bobby's Burger Palace",
    "lat": 33.6423582,
    "lon": -84.43601,
    "cuisine": "burger",
    "source": "OpenStreetMap Overpass API (amenity=restaurant); bbox+addr:state filtered to the Atlanta MSA from eda/research/restaurants_raw.geojson, see eda/fetch_restaurants.py"
  },
  {
    "name": "BoccaLupa",
    "lat": 33.7547752,
    "lon": -84.3627599,
    "cuisine": "italian",
    "source": "OpenStreetMap Overpass API (amenity=restaurant); bbox+addr:state filtered to the Atlanta MSA from eda/research/restaurants_raw.geojson, see eda/fetch_restaurants.py"
  },
  {
    "name": "Boho Taco",
    "lat": 33.7766541,
    "lon": -84.3879032,
    "cuisine": "mexican",
    "source": "OpenStreetMap Overpass API (amenity=restaurant); bbox+addr:state filtered to the Atlanta MSA from eda/research/restaurants_raw.geojson, see eda/fetch_restaurants.py"
  },
  {
    "name": "Bom Brazil",
    "lat": 33.938338,
    "lon": -84.5142611,
    "cuisine": null,
    "source": "OpenStreetMap Overpass API (amenity=restaurant); bbox+addr:state filtered to the Atlanta MSA from eda/research/restaurants_raw.geojson, see eda/fetch_restaurants.py"
  },
  {
    "name": "Bomb Biscuit Co.",
    "lat": 33.761441,
    "lon": -84.3653524,
    "cuisine": "breakfast",
    "source": "OpenStreetMap Overpass API (amenity=restaurant); bbox+addr:state filtered to the Atlanta MSA from eda/research/restaurants_raw.geojson, see eda/fetch_restaurants.py"
  },
  {
    "name": "Bombay Bites",
    "lat": 33.4619013,
    "lon": -84.2195148,
    "cuisine": "indian",
    "source": "OpenStreetMap Overpass API (amenity=restaurant); bbox+addr:state filtered to the Atlanta MSA from eda/research/restaurants_raw.geojson, see eda/fetch_restaurants.py"
  },
  {
    "name": "Bombay Flames",
    "lat": 34.0255253,
    "lon": -84.2501385,
    "cuisine": "indian",
    "source": "OpenStreetMap Overpass API (amenity=restaurant); bbox+addr:state filtered to the Atlanta MSA from eda/research/restaurants_raw.geojson, see eda/fetch_restaurants.py"
  },
  {
    "name": "Bombay Kitchen",
    "lat": 33.8506624,
    "lon": -84.2137489,
    "cuisine": "indian",
    "source": "OpenStreetMap Overpass API (amenity=restaurant); bbox+addr:state filtered to the Atlanta MSA from eda/research/restaurants_raw.geojson, see eda/fetch_restaurants.py"
  },
  {
    "name": "Bon Ton",
    "lat": 33.772956,
    "lon": -84.3803812,
    "cuisine": "seafood;fusion;vietnamese;cajun",
    "source": "OpenStreetMap Overpass API (amenity=restaurant); bbox+addr:state filtered to the Atlanta MSA from eda/research/restaurants_raw.geojson, see eda/fetch_restaurants.py"
  },
  {
    "name": "Bone Garden Cantina",
    "lat": 33.7935744,
    "lon": -84.4259486,
    "cuisine": "mexican",
    "source": "OpenStreetMap Overpass API (amenity=restaurant); bbox+addr:state filtered to the Atlanta MSA from eda/research/restaurants_raw.geojson, see eda/fetch_restaurants.py"
  },
  {
    "name": "Bonefish Grill",
    "lat": 33.8801374,
    "lon": -84.4589453,
    "cuisine": "seafood",
    "source": "OpenStreetMap Overpass API (amenity=restaurant); bbox+addr:state filtered to the Atlanta MSA from eda/research/restaurants_raw.geojson, see eda/fetch_restaurants.py"
  },
  {
    "name": "Bonefish Grill",
    "lat": 34.0655939,
    "lon": -84.2102316,
    "cuisine": null,
    "source": "OpenStreetMap Overpass API (amenity=restaurant); bbox+addr:state filtered to the Atlanta MSA from eda/research/restaurants_raw.geojson, see eda/fetch_restaurants.py"
  },
  {
    "name": "Bonefish Grill",
    "lat": 34.0767969,
    "lon": -83.9848959,
    "cuisine": "seafood",
    "source": "OpenStreetMap Overpass API (amenity=restaurant); bbox+addr:state filtered to the Atlanta MSA from eda/research/restaurants_raw.geojson, see eda/fetch_restaurants.py"
  },
  {
    "name": "Bonefish Grill",
    "lat": 33.8964737,
    "lon": -84.0042067,
    "cuisine": "seafood",
    "source": "OpenStreetMap Overpass API (amenity=restaurant); bbox+addr:state filtered to the Atlanta MSA from eda/research/restaurants_raw.geojson, see eda/fetch_restaurants.py"
  },
  {
    "name": "Bones",
    "lat": 33.8417605,
    "lon": -84.371031,
    "cuisine": "steak_house",
    "source": "OpenStreetMap Overpass API (amenity=restaurant); bbox+addr:state filtered to the Atlanta MSA from eda/research/restaurants_raw.geojson, see eda/fetch_restaurants.py"
  },
  {
    "name": "Bonfire Brazil Steakhouse",
    "lat": 34.048871,
    "lon": -84.5972852,
    "cuisine": "brazilian",
    "source": "OpenStreetMap Overpass API (amenity=restaurant); bbox+addr:state filtered to the Atlanta MSA from eda/research/restaurants_raw.geojson, see eda/fetch_restaurants.py"
  },
  {
    "name": "Boone's",
    "lat": 33.8149588,
    "lon": -84.4056336,
    "cuisine": "american;southern",
    "source": "OpenStreetMap Overpass API (amenity=restaurant); bbox+addr:state filtered to the Atlanta MSA from eda/research/restaurants_raw.geojson, see eda/fetch_restaurants.py"
  },
  {
    "name": "Boqueria",
    "lat": 33.7879968,
    "lon": -84.3833334,
    "cuisine": "spanish;tapas",
    "source": "OpenStreetMap Overpass API (amenity=restaurant); bbox+addr:state filtered to the Atlanta MSA from eda/research/restaurants_raw.geojson, see eda/fetch_restaurants.py"
  },
  {
    "name": "Boru Ramen Noodle & Poke",
    "lat": 33.9521228,
    "lon": -84.5487336,
    "cuisine": "ramen",
    "source": "OpenStreetMap Overpass API (amenity=restaurant); bbox+addr:state filtered to the Atlanta MSA from eda/research/restaurants_raw.geojson, see eda/fetch_restaurants.py"
  },
  {
    "name": "Boruboru Sushi",
    "lat": 33.800788,
    "lon": -84.3266198,
    "cuisine": "japanese",
    "source": "OpenStreetMap Overpass API (amenity=restaurant); bbox+addr:state filtered to the Atlanta MSA from eda/research/restaurants_raw.geojson, see eda/fetch_restaurants.py"
  },
  {
    "name": "Botica",
    "lat": 33.8053118,
    "lon": -84.3941692,
    "cuisine": "mexican;spanish;mediterranean",
    "source": "OpenStreetMap Overpass API (amenity=restaurant); bbox+addr:state filtered to the Atlanta MSA from eda/research/restaurants_raw.geojson, see eda/fetch_restaurants.py"
  },
  {
    "name": "Bottega Italian Market & Pizza",
    "lat": 33.9520744,
    "lon": -84.5492367,
    "cuisine": "pizza",
    "source": "OpenStreetMap Overpass API (amenity=restaurant); bbox+addr:state filtered to the Atlanta MSA from eda/research/restaurants_raw.geojson, see eda/fetch_restaurants.py"
  },
  {
    "name": "Bottle Rocket",
    "lat": 33.7500505,
    "lon": -84.4008904,
    "cuisine": "sushi;japanese",
    "source": "OpenStreetMap Overpass API (amenity=restaurant); bbox+addr:state filtered to the Atlanta MSA from eda/research/restaurants_raw.geojson, see eda/fetch_restaurants.py"
  },